     2.10           OBSERVATION DATA    G (GPS)             RINEX VERSION / TYPE
teqc  2006Dec12     UNAVCO Archive Ops  20061228 04:13:46UTCPGM / RUN BY / DATE
Solaris 5.9|UltraSparc IIIi|cc -xarch=v9 SC5.8|=+-|*Sparc   COMMENT
BIT 2 OF LLI FLAGS DATA COLLECTED UNDER A/S CONDITION       COMMENT
USLO                                                        MARKER NAME
49714M001                                                   MARKER NUMBER
Freddy Blume        UNAVCO                                  OBSERVER / AGENCY
LP02643             ASHTECH Z-XII3      CC00                REC # / TYPE / VERS
CR519991817         ASH701933B_M    SCIT                    ANT # / TYPE
 -2657201.1481 -4482167.4171  3666227.1204                  APPROX POSITION XYZ
        0.0083        0.0000        0.0000                  ANTENNA: DELTA H/E/N
     1     1                                                WAVELENGTH FACT L1/2
     7    L1    L2    C1    P2    P1    S1    S2            # / TYPES OF OBSERV
    30.0000                                                 INTERVAL
RINEX file created by UNAVCO GPS Archive.                   COMMENT
For more information contact archive@unavco.org             COMMENT
Monument ID: 18694                                          COMMENT
UNAVCO 4-char name:   USLO                                  COMMENT
4-char name from Log or data file: USLO                     COMMENT
Monument location: 35.311803 -120.661092 134.6419           COMMENT
Visit ID: 79583                                             COMMENT
End of DB comments                                          COMMENT
 SNR is mapped to RINEX snr flag value [0-9]                COMMENT
  L1 & L2: min(max(int(snr_dBHz/6), 0), 9)                  COMMENT
pseudorange smoothing corrections not applied               COMMENT
  2006    12    27     0     0   30.0000000     GPS         TIME OF FIRST OBS
                                                            END OF HEADER
 06 12 27  0  0 30.0000000  0 11G29G18G22G30G16G 6G 5G10G 7G26G21
  -9907430.63747  -7673715.37345  22761166.2294   22761172.6104   22761166.4724
        45.4004         33.8004
 -14012040.83748 -10335395.61646  22158259.7894   22158266.1514   22158259.1664
        51.0004         40.1004
  -1091644.51147    279118.9304
        44.4004          1.5004
  -7072575.91147  -4942057.17945  23365557.2504   23365565.1804   23365557.3614
        47.5004         32.8004
  -4731175.50847  -3638711.23544  23817518.8734   23817525.1374   23817520.2144
        45.4004         29.0004
 -24569788.05249 -19101680.20448  20185383.3524   20185390.1754   20185383.2804
        54.1004         49.1004
   3094341.35046   2446708.95643  25607847.5844   25607858.0674   25607849.4454
        36.4004         18.9004
  -7471739.47047  -5787345.92345  23488549.1804   23488556.7644   23488546.2884
        43.7004         31.0004
 -21837320.47749 -16985678.09548  20422360.9754   20422368.0484   20422360.1044
        54.8004         50.5004
 -10263038.27547  -7473754.04844  22660171.1674   22660179.5914   22660172.4794
        45.0004         29.0004
 -18454001.19748 -14354608.89247  21349885.0074   21349890.3754   21349884.3634
        53.7004         46.3004
 06 12 27  0  1  0.0000000  0 11G29G18G22G30G16G 6G 5G10G 7G26G21
  -9935217.34947  -7695367.31445  22755878.7884   22755885.3654   22755879.3334
        46.8004         33.8004
 -14093530.59948 -10398894.11446  22142752.8314   22142759.2584   22142752.1024
        51.3004         40.4004
  -1199107.20347    195384.5344
        44.4004          1.5004
  -6968529.54747  -4860982.10045  23385356.6794   23385365.2704   23385357.0944
        46.8004         32.8004
  -4792485.11147  -3686485.00044  23805852.1914   23805858.9584   23805849.7734
        43.0004         28.3004
 -24561348.05149 -19095103.58048  20186989.4444   20186995.9404   20186989.2684
        54.1004         49.1004
   3197068.20446   2526755.76543  25627395.8204   25627405.6664   25627397.5924
        37.1004         18.2004
  -7368966.95547  -5707263.38745  23508106.2634   23508111.3174   23508106.7564
        46.4004         31.0004
 -21868080.02049 -17009646.56348  20416507.6204   20416514.6054   20416506.8964
        54.8004         50.5004
 -10327727.59847  -7524161.27444  22647861.2794   22647869.2824   22647860.2434
        44.7004         29.7004
 -18491666.35048 -14383958.33347  21342717.6114   21342722.7954   21342717.0444
        53.7004         46.3004
 06 12 27  0  1 30.0000000  0 11G29G18G22G30G16G 6G 5G10G 7G26G21
  -9962491.19447  -7716619.66245  22750688.7874   22750695.1904   22750688.8764
        45.4004         33.1004
 -14174693.77148 -10462138.13146  22127308.0024   22127314.3244   22127307.7844
        51.0004         40.8004
  -1306483.35047    649616.9454
        43.7004          1.5004
  -6864388.24447  -4779833.03645  23405174.1314   23405182.5394   23405174.4254
        46.8004         32.4004
  -4853345.64247  -3733908.78044  23794270.8224   23794274.7664   23794270.4694
        44.7004         28.6004
 -24552470.21049 -19088185.78248  20188678.8454   20188685.6114   20188678.6594
        54.1004         49.1004
   3299620.81146   2606666.80643  25646910.8784   25646919.4654   25646910.6634
        39.5004         20.3004
  -7266019.48647  -5627044.66545  23527696.3134   23527703.8064   23527696.0954
        46.1004         30.3004
 -21898460.35149 -17033319.54148  20410726.4084   20410733.4064   20410725.6694
        55.1004         50.5004
 -10391963.42647  -7574215.10944  22635637.2014   22635644.5134   22635634.5264
        42.3004         28.6004
 -18529162.51048 -14413176.08847  21335582.3174   21335587.6194   21335581.6844
        53.7004         46.3004
 06 12 27  0  2  0.0000000  0 11G29G18G22G30G16G 6G 5G10G 7G26G21
  -9989250.08547  -7737470.70845  22745596.5334   22745603.2874   22745597.1414
        45.4004         32.8004
 -14255527.98848 -10525125.81246  22111925.7944   22111932.0484   22111925.3434
        51.3004         40.8004
  -1413769.95747    566016.8164
        43.7004          1.5004
  -6760154.36247  -4698611.84945  23425009.2334   23425017.1884   23425009.3834
        46.8004         32.1004
  -4913754.62747  -3780980.63444  23782775.1814   23782781.5974   23782775.6774
        46.1004         29.0004
 -24543153.20149 -19080925.77548  20190451.7954   20190458.6774   20190451.6914
        54.1004         49.1004
   3401997.91346   2686441.07543  25666392.6984   25666402.6664   25666391.0874
        36.7004         19.6004
  -7162899.56946  -5546691.42745  23547319.6494   23547327.3474   23547315.3234
        41.6004         30.3004
 -21928459.41549 -17056695.42548  20405017.7884   20405024.9504   20405016.9914
        55.1004         50.5004
 -10455742.00547  -7623912.65644  22623499.7814   22623507.2254   22623498.9584
        42.6004         27.9004
 -18566489.19448 -14442261.79047  21328479.2554   21328484.3934   21328478.7914
        53.7004         46.7004
 06 12 27  0  2 30.0000000  0 11G29G18G22G30G16G 6G 5G10G 7G26G21
 -10015492.16847  -7757919.05945  22740602.8594   22740611.1384   22740602.6284
        45.4004         33.5004
 -14336032.21148 -10587856.35646  22096606.3834   22096612.4044   22096605.8884
        51.6004         41.1004
  -1520966.52447    482487.21542                  24850358.6264
        43.0004         13.7004
  -6655831.00547  -4617320.95145  23444861.3774   23444868.8954   23444861.1904
        46.1004         32.1004
  -4973710.45047  -3827699.48044  23771366.2124   23771369.8864   23771365.3064
        44.4004         28.6004
 -24533396.52249 -19073323.17248  20192308.4654   20192315.3344   20192308.3664
        54.1004         49.1004
   3504197.11046   2766076.71443  25685840.5104   25685850.9744   25685839.4334
        39.5004         20.6004
  -7059610.12047  -5466206.15544  23566974.6944   23566981.2344   23566974.5434
        46.1004         29.3004
 -21958075.68249 -17079773.02848  20399381.9654   20399388.9654   20399381.2224
        55.1004         50.5004
 -10519060.14447  -7673251.43544  22611450.5684   22611457.5774   22611451.9184
        44.7004         28.3004
 -18603646.72548 -14471215.68947  21321408.3944   21321413.7074   21321407.8564
        53.7004         46.3004
 06 12 27  0  3  0.0000000  0 11G29G18G22G30G16G 6G 5G10G 7G26G21
 -10041216.97947  -7777964.32845  22735707.5524   22735714.8724   22735706.8084
        45.4004         33.5004
 -14416205.50848 -10650329.02846  22081349.9104   22081355.8184   22081349.4504
        52.0004         41.1004
  -1628071.67647    399028.75844  24829970.5994   24829977.1894   24829969.2604
        42.3004         24.1004
  -6551422.13347  -4535963.41545  23464729.7924   23464737.8674   23464730.0554
        46.1004         31.7004
  -5033212.19647  -3874064.44944  23760043.4764   23760047.7174   23760040.9164
        44.4004         29.0004
 -24523200.44449 -19065378.17948  20194248.7134   20194255.4344   20194248.6534
        54.1004         49.1004
   3606215.43146   2845571.41143  25705253.8824   25705263.8814   25705253.1544
        39.8004         21.7004
  -6956154.56846  -5385591.51445  23586661.7654   23586669.6034   23586657.9564
        41.9004         30.3004
 -21987308.41649 -17102551.77248  20393819.1644   20393826.1194   20393818.5734
        55.1004         50.5004
 -10581915.53847  -7722229.64945  22599490.1644   22599499.0484   22599492.4474
        46.4004         30.0004
 -18640636.05148 -14500038.51847  21314369.5064   21314374.7944   21314368.7904
        53.7004         46.3004
 06 12 27  0  3 30.0000000  0 11G29G18G22G30G16G 6G 5G10G 7G26G21
 -10066421.98347  -7797604.58745  22730910.9664   22730917.5364   22730911.9274
        46.4004         33.1004
 -14496046.05148 -10712542.41246  22066156.7344   22066163.0264   22066156.1484
        51.6004         41.1004
  -1735082.69446    315643.63644  24809607.0914   24809612.9304   24809607.1464
        41.2004         25.1004
  -6446929.80347  -4454540.83545  23484613.9634   23484621.4944   23484613.8804
        45.4004         31.7004
  -5092257.36847  -3920073.66744  23748807.4754   23748814.0714   23748806.9734
        45.0004         29.3004
 -24512563.42349 -19057089.59148  20196272.8674   20196279.5504   20196272.7014
        54.1004         49.1004
   3708051.49745   2924924.09142  25724632.6774   25724642.4094   25724634.1364
        35.7004         17.8004
  -6852535.21047  -5304849.04844  23606379.8724   23606382.9974   23606380.6434
        46.4004         29.0004
 -22016155.43449 -17125029.95548  20388329.7264   20388336.5274   20388328.9844
        55.1004         50.5004
 -10644304.44047  -7770844.34545  22587618.5954   22587627.6354   22587618.9874
        43.7004         31.0004
 -18677456.74648 -14528729.94947  21307362.6794   21307367.8694   21307362.1304
        53.4004         46.3004
 06 12 27  0  4  0.0000000  0 11G29G18G22G30G16G 6G 5G10G 7G26G21
 -10091106.52147  -7816839.27945  22726213.8644   22726220.9674   22726213.7604
        45.4004         33.5004
 -14575553.10648 -10774495.92346  22051027.0334   22051033.1204   22051026.6724
        52.0004         41.1004
  -1841998.73146    232332.50944  24789261.6724   24789268.4104   24789261.1624
        40.5004         24.8004
  -6342358.28447  -4373056.57145  23504513.0554   23504520.9444   23504513.4444
        45.4004         31.7004
  -5150845.45147  -3965726.69744  23737658.3834   23737661.5624   23737658.1414
        44.7004         28.6004
 -24501485.75649 -19048457.63448  20198380.8994   20198387.6754   20198380.7524
        54.1004         49.1004
   3809702.80846   3004132.80543  25743976.2124   25743984.9844   25743976.1764
        36.4004         20.6004
  -6748755.45247  -5223981.89045  23626128.3234   23626136.5814   23626128.2724
        45.4004         30.0004
 -22044615.84849 -17147206.88648  20382913.9044   20382920.9224   20382913.1734
        55.1004         50.5004
 -10706224.64646  -7819093.78345  22575835.1954   22575844.2674   22575832.5864
        41.9004         30.7004
 -18714109.68248 -14557290.65447  21300387.7964   21300393.1504   21300387.0094
        53.4004         46.3004
 06 12 27  0  4 30.0000000  0 11G29G18G22G30G16G 6G 5G10G 7G26G21
 -10115265.68847  -7835664.58345  22721616.3424   22721622.5724   22721614.9134
        45.0004         33.1004
 -14654721.84348 -10836185.82146  22035961.7144   22035967.5234   22035961.2024
        51.6004         41.1004
  -1948814.55446    149099.43044  24768935.3664   24768941.2184   24768934.1844
        39.8004         24.4004
  -6237707.55647  -4291510.57545  23524427.3194   23524435.5164   23524427.7284
        45.4004         31.7004
  -5208971.14047  -4011019.36044  23726597.3954   23726601.9334   23726596.5794
        45.0004         29.0004
 -24489963.45448 -19039479.22348  20200573.5094   20200580.2054   20200573.2844
        53.7004         49.1004
   3911169.98446   3083198.02743  25763284.8864   25763292.0354   25763285.2694
        38.1004         18.9004
  -6644814.83747  -5142989.09544  23645907.9644   23645911.6974   23645907.1094
        44.0004         29.7004
 -22072684.83849 -17169078.82248  20377572.5814   20377579.4554   20377571.8914
        54.4004         50.5004
 -10767669.66147  -7866972.92344  22564141.5684   22564150.2244   22564140.9804
        42.3004         29.3004
 -18750591.94048 -14585718.37647  21293445.3804   21293450.8514   21293444.6854
        53.4004         46.3004
 06 12 27  0  5  0.0000000  0 11G29G18G22G30G16G 6G 5G10G 7G26G21
 -10138903.06347  -7854083.29645  22717118.1034   22717125.4484   22717118.8064
        46.1004         33.1004
 -14733555.89948 -10897614.91246  22020960.0434   22020965.8834   22020959.6174
        52.0004         41.1004
  -2055533.39646     65941.89044  24748627.4124   24748633.0484   24748626.3924
        40.2004         24.1004
  -6132984.98647  -4209908.59445  23544355.3774   23544363.1444   23544356.3414
        45.7004         31.7004
  -5266637.81147  -4055954.45844  23715623.7714   23715630.0794   23715622.6164
        44.7004         29.3004
 -24478001.05448 -19030157.87048  20202849.9124   20202856.7024   20202849.8184
        53.7004         49.1004
   4012446.79946   3162114.90443  25782557.3354   25782567.0444   25782556.5584
        39.8004         21.0004
  -6540720.95447  -5061877.01945  23665716.0374   23665724.7644   23665716.4654
        47.5004         30.0004
 -22100365.87649 -17190648.45148  20372305.0364   20372312.1314   20372304.2974
        54.4004         50.5004
 -10828641.27247  -7914483.24244  22552539.0884   22552546.1314   22552540.3614
        44.4004         29.3004
 -18786908.75648 -14614017.17547  21286534.4494   21286540.0114   21286533.7794
        53.4004         46.3004
 06 12 27  0  5 30.0000000  0 11G29G18G22G30G16G 6G 5G10G 7G26G21
 -10162012.92247  -7872090.94145  22712720.4784   22712729.1054   22712720.1914
        46.1004         33.8004
 -14812049.65248 -10958778.82346  22006023.1574   22006028.8014   22006022.4884
        52.0004         41.1004
  -2162149.17546    -17135.35543  24728339.0314   24728343.9784   24728337.7584
        39.5004         23.7004
  -6028189.70447  -4128249.95445  23564297.3254   23564305.1004   23564297.9664
        46.1004         32.1004
  -5323839.88247  -4100527.43544  23704738.5074   23704744.8594   23704736.8524
        45.0004         29.3004
 -24465593.86348 -19020489.93248  20205210.9254   20205217.6934   20205210.6544
        53.7004         49.1004
   4113534.26046   3240884.24343  25801793.8064   25801802.6834   25801793.0404
        40.5004         20.3004
  -6436472.75547  -4980644.75944  23685553.9994   23685557.6974   23685550.2254
        43.7004         28.6004
 -22127653.27249 -17211911.34748  20367112.3964   20367119.3634   20367111.5624
        54.4004         50.5004
 -10889132.53147  -7961619.27744  22541028.6284   22541035.4114   22541027.1024
        43.0004         29.3004
 -18823056.19948 -14642184.00447  21279655.7814   21279661.0574   21279655.2814
        53.4004         46.3004
 06 12 27  0  6  0.0000000  0 11G29G18G22G30G16G 6G 5G10G 7G26G21
 -10184594.69447  -7889687.08345  22708423.2274   22708432.1354   22708422.9364
        46.4004         34.5004
 -14890202.49348 -11019677.10946  21991151.1914   21991157.2414   21991150.8934
        52.0004         41.1004
  -2268661.17946   -100131.72244  24708070.5004   24708076.1494   24708069.8994
        40.9004         24.1004
  -5923325.71847  -4046537.78045  23584252.3144   23584260.3884   23584253.1114
        46.4004         32.1004
  -5380576.53247  -4144737.81244  23693941.7034   23693948.9034   23693939.1074
        44.0004         29.3004
 -24452741.97748 -19010475.48048  20207656.5264   20207663.4484   20207656.2414
        53.7004         49.1004
   4214430.45746   3319504.62242  25820993.5124   25821006.3914   25820991.8394
        39.5004         16.1004
  -6332073.65947  -4899294.74144  23705420.3204   23705428.2314   23705420.7394
        46.1004         28.6004
 -22154546.21749 -17232866.88348  20361994.8044   20362001.8284   20361993.9854
        54.1004         50.5004
 -10949141.21247  -8008379.22145  22529609.1154   22529618.5294   22529608.6074
        44.0004         30.0004
 -18859035.36148 -14670219.70547  21272809.1514   21272814.7384   21272808.4414
        53.4004         46.3004
 06 12 27  0  6 30.0000000  0 11G29G18G22G30G16G 6G 5G10G 7G26G21
 -10206647.26347  -7906870.86145  22704226.7894   22704235.2034   22704227.4304
        46.8004         34.9004
 -14968013.67148 -11080309.15746  21976344.1434   21976350.0294   21976343.9344
        51.6004         41.5004
  -2375067.40046   -183045.65844  24687822.0424   24687827.6524   24687820.9874
        41.2004         24.1004
  -5818396.49647  -3964774.76145  23604219.8874   23604227.5024   23604220.8184
        46.4004         32.1004
  -5436846.70247  -4188584.69744  23683233.6954   23683240.8274   23683235.6474
        44.7004         29.7004
 -24439445.36749 -19000114.48548  20210186.7614   20210193.5184   20210186.4894
        54.1004         49.1004
   4315132.71746   3397973.74243  25840156.5744   25840164.5024   25840156.3724
        37.4004         18.5004
  -6227526.76647  -4817829.69144  23725315.1284   23725322.6354   23725313.6174
        43.3004         29.0004
 -22181043.61549 -17253514.20348  20356952.4884   20356959.4424   20356951.8064
        54.1004         50.5004
 -11008664.28947  -8054760.76345  22518282.1924   22518291.9204   22518282.3284
        43.7004         30.3004
 -18894846.52348 -14698124.49747  21265994.5414   21266000.1494   21265994.0094
        53.4004         46.7004
 06 12 27  0  7  0.0000000  0 10G29G18G22G30G16G 6G10G 7G26G21
 -10228168.73147  -7923640.80545  22700131.5054   22700139.8574   22700131.0064
        46.8004         35.2004
 -15045481.44848 -11140673.61446  21961602.5374   21961608.5014   21961601.6104
        51.6004         41.5004
  -2481366.24746   -265875.87844  24667593.8284   24667599.5894   24667593.2114
        40.9004         24.4004
  -5713404.40547  -3882962.75745  23624199.3814   23624207.2704   23624199.9474
        46.8004         32.1004
  -5492648.03647  -4232066.21344  23672615.0534   23672621.2354   23672615.2594
        45.7004         29.7004
 -24425703.08749 -18989406.21548  20212801.8464   20212808.6044   20212801.5794
        54.1004         49.1004
  -6122834.30147  -4736251.11244  23745237.5224   23745241.6484   23745237.2544
        46.1004         27.2004
 -22207143.61849 -17273851.86048  20351985.7644   20351992.7964   20351985.0544
        54.1004         50.5004
 -11067698.46647  -8100761.36945  22507048.5294   22507057.7634   22507050.6934
        45.7004         31.0004
 -18930489.34548 -14725898.11447  21259211.9444   21259217.2644   21259211.6244
        53.7004         46.7004
 06 12 27  0  7 30.0000000  0 10G29G18G22G30G16G 6G10G 7G26G21
 -10249158.41247  -7939996.37445  22696137.2604   22696145.8134   22696137.2314
        47.1004         34.9004
 -15122605.15748 -11200769.97646  21946926.3154   21946931.9574   21946925.6604
        51.6004         41.5004
  -2587556.56546   -348621.50244  24647386.3994   24647392.6434   24647385.2804
        41.9004         24.8004
  -5608353.18047  -3801104.68045  23644190.0504   23644197.1074   23644189.8384
        46.4004         31.7004
  -5547979.78647  -4275181.85745  23662085.7394   23662092.2094   23662085.7994
        44.7004         30.0004
 -24411515.18748 -18978350.71348  20215501.7004   20215508.6724   20215501.5394
        53.7004         49.1004
  -6017999.75347  -4654561.85645  23765187.0584   23765194.4274   23765185.8044
        43.3004         30.0004
 -22232845.46049 -17293879.26648  20347094.8824   20347101.8714   20347094.1504
        54.1004         50.5004
 -11126241.59147  -8146379.36445  22495908.9094   22495916.3774   22495909.8364
        45.0004         31.7004
 -18965964.84048 -14753541.34347  21252461.2404   21252466.6534   21252460.7484
        53.7004         46.7004
 06 12 27  0  8  0.0000000  0 10G29G18G22G30G16G 6G10G 7G26G21
 -10269613.37847  -7955935.27045  22692244.9414   22692251.5734   22692244.7264
        47.5004         34.5004
 -15199381.90848 -11260595.97646  21932316.1464   21932322.1484   21932315.5744
        52.0004         41.8004
  -2693634.86447   -431279.81844  24627200.2394   24627206.5064   24627200.0444
        43.0004         25.1004
  -5503244.36847  -3719201.74045  23664191.6724   23664199.5794   23664191.3014
        46.4004         31.7004
  -5602838.84247  -4317929.12245  23651646.2974   23651653.5004   23651645.6164
        46.1004         30.3004
 -24396879.67948 -18966946.42148  20218286.7334   20218293.7774   20218286.7314
        53.7004         49.1004
  -5913024.05947  -4572762.69844  23785163.2024   23785166.8414   23785164.3934
        47.8004         28.6004
 -22258145.84649 -17313593.84648  20342280.3664   20342287.3934   20342279.6034
        54.4004         50.5004
 -11184289.13647  -8191611.14745  22484862.8834   22484869.7554   22484862.0044
        44.0004         31.0004
 -19001271.76048 -14781053.21247  21245742.5574   21245747.8944   21245742.0694
        53.7004         47.0004
 06 12 27  0  8 30.0000000  0 10G29G18G22G30G16G 6G10G 7G26G21
 -10289532.64347  -7971456.75245  22688454.3314   22688460.3674   22688453.8804
        46.4004         33.5004
 -15275810.67448 -11320150.82646  21917772.2534   21917778.3564   21917771.2334
        52.0004         41.8004
  -2799599.65047   -513849.67944  24607035.6964   24607042.1814   24607035.4344
        42.6004         25.1004
  -5398081.25447  -3637256.46945  23684203.4554   23684210.7114   23684203.5874
        46.1004         31.4004
  -5657224.14747  -4360307.29245  23641297.1604   23641303.4094   23641295.5824
        44.4004         30.7004
 -24381796.44149 -18955193.25348  20221156.9834   20221164.0264   20221156.9444
        54.1004         49.1004
  -5807910.49146  -4490855.94344  23805165.8034   23805174.9964   23805162.1694
        40.5004         27.6004
 -22283043.87849 -17332994.90948  20337542.4374   20337549.3514   20337541.6234
        54.4004         50.5004
 -11241838.52947  -8236454.79145  22473911.3674   22473918.8264   22473912.1744
        45.4004         31.0004
 -19036410.64149 -14808434.14347  21239055.8694   21239061.2114   21239055.4384
        54.1004         47.0004
 06 12 27  0  9  0.0000000  0 10G29G18G22G30G16G 6G10G 7G26G21
 -10308918.23747  -7986562.38845  22684765.1074   22684773.2184   22684764.5744
        47.1004         33.5004
 -15351893.42348 -11379436.04847  21903294.1174   21903300.2704   21903293.4454
        52.0004         42.2004
  -2905452.34647   -596332.17444  24586892.4874   24586897.3704   24586891.4194
        43.7004         25.1004
  -5292870.44847  -3555274.02945  23704224.3604   23704231.9474   23704224.5974
        45.4004         31.0004
  -5711137.51647  -4402317.66245  23631037.7154   23631042.3954   23631036.2644
        45.7004         30.7004
 -24366268.52149 -18943093.58248  20224111.8594   20224118.6694   20224111.6994
        54.1004         49.1004
  -5702665.26647  -4408846.78345  23825193.0044   23825200.1144   23825194.0614
        46.8004         30.0004
 -22307541.36049 -17352083.85448  20332880.7404   20332887.5284   20332880.1204
        54.4004         50.5004
 -11298889.93547  -8280910.38345  22463055.0194   22463063.2874   22463055.5504
        45.0004         31.4004
 -19071384.92048 -14835686.80947  21232400.4964   21232406.0144   21232399.9854
        53.7004         47.0004
 06 12 27  0  9 30.0000000  0 10G29G18G22G30G16G 6G10G 7G26G21
 -10327765.04147  -8001248.17245  22681178.6234   22681186.2154   22681178.6074
        47.5004         34.2004
 -15427625.06848 -11438447.68747  21888882.7654   21888888.9974   21888882.0024
        51.6004         42.2004
  -3011187.62847   -678723.16644  24566771.6104   24566776.6814   24566771.6284
        43.3004         25.1004
  -5187610.97547  -3473253.67845  23724254.4224   23724263.0984   23724254.3904
        45.0004         30.3004
  -5764573.56847  -4443956.11945  23620869.2164   23620877.0794   23620868.3534
        46.1004         31.0004
 -24350291.35849 -18930643.84248  20227152.2394   20227159.0074   20227152.1044
        54.1004         49.1004
  -5597287.09746  -4326733.86544  23845245.9964   23845251.5784   23845242.4424
        39.1004         26.5004
 -22331632.94049 -17370856.50748  20328296.2784   20328303.0844   20328295.6944
        54.8004         50.5004
 -11355436.95047  -8324972.93545  22452294.3554   22452301.4324   22452294.5004
        45.4004         31.0004
 -19106191.01548 -14862808.42247  21225777.0944   21225782.3964   21225776.4914
        53.7004         47.0004
 06 12 27  0 10  0.0000000  0 10G29G18G22G30G16G 6G10G 7G26G21
 -10346069.07847  -8015511.03845  22677695.4954   22677702.4564   22677696.3674
        47.5004         34.2004
 -15503001.48448 -11497182.52847  21874539.1014   21874544.9044   21874538.3724
        52.0004         42.2004
  -3116801.10747   -761019.23844  24546673.7774   24546679.0544   24546673.7814
        43.0004         25.1004
  -5082303.57447  -3391195.99445  23744293.5364   23744301.9054   23744294.2874
        44.4004         30.0004
  -5817528.07547  -4485219.38745  23610792.3574   23610800.1994   23610792.5384
        44.7004         31.4004
 -24333861.90548 -18917841.67348  20230278.6554   20230285.5674   20230278.5204
        53.7004         49.1004
  -5491775.94447  -4244517.40244  23865323.6974   23865331.2094   23865324.4004
        46.4004         28.3004
 -22355314.53349 -17389309.68948  20323789.8874   20323796.6624   20323789.2734
        54.4004         50.5004
 -11411473.56647  -8368637.77945  22441630.8594   22441638.7734   22441628.8144
        44.0004         31.0004
 -19140826.50448 -14889797.09447  21219186.1564   21219191.3394   21219185.6134
        53.7004         47.0004
 06 12 27  0 10 30.0000000  0 10G29G18G22G30G16G 6G10G 7G26G21
 -10363831.73147  -8029352.04545  22674315.5664   22674322.0864   22674315.6984
        47.5004         34.9004
 -15578024.09548 -11555641.67447  21860262.7594   21860268.8814   21860261.9564
        51.6004         42.5004
  -3222293.48347   -843220.94844  24526599.1764   24526605.3424   24526598.1194
        43.0004         25.1004
  -4976953.22347  -3309104.83044  23764340.7964   23764349.7744   23764341.2894
        44.4004         29.7004
  -5870002.15247  -4526108.22845  23600806.8784   23600815.0824   23600805.7024
        46.1004         31.7004
 -24316982.40849 -18904688.82648  20233490.7104   20233497.7314   20233490.5264
        54.1004         48.8004
  -5386137.25446  -4162201.60744  23885426.4174   23885432.0694   23885422.5764
        38.8004         29.0004
 -22378587.32549 -17407444.32448  20319361.2464   20319368.1494   20319360.7394
        54.8004         50.8004
 -11466999.66647  -8411904.80945  22431064.1624   22431072.1454   22431062.8984
        44.7004         30.7004
 -19175294.25448 -14916655.05947  21212627.1314   21212632.5774   21212626.3944
        53.7004         47.0004
 06 12 27  0 11  0.0000000  0 10G29G18G22G30G16G 6G10G 7G26G21
 -10381051.98247  -8042770.39645  22671038.5244   22671045.1314   22671038.5174
        47.5004         34.2004
 -15652691.94548 -11613824.39347  21846053.9374   21846059.8084   21846053.3824
        52.0004         42.5004
  -3327663.19147   -925327.05844  24506547.7394   24506553.9594   24506547.4304
        43.0004         24.8004
  -4871563.10847  -3226982.67444  23784395.8074   23784404.6074   23784396.5054
        44.0004         29.0004
  -5921994.77747  -4566621.97245  23590913.1304   23590919.7094   23590913.0314
        45.4004         31.7004
 -24299652.60748 -18891185.08848  20236788.4834   20236795.1784   20236788.3334
        53.7004         48.8004
  -5280373.82947  -4079788.42044  23905552.1764   23905559.2434   23905552.2014
        45.7004         25.1004
 -22401449.85949 -17425259.27748  20315010.7214   20315017.4564   20315010.0314
        54.8004         50.8004
 -11522012.67547  -8454772.06045  22420595.3134   22420602.3064   22420594.6554
        45.4004         31.0004
 -19209594.28948 -14943382.34047  21206100.0034   21206105.5554   21206099.5534
        53.4004         47.0004
 06 12 27  0 11 30.0000000  0 10G29G18G22G30G16G 6G10G 7G26G21
 -10397727.66247  -8055764.40245  22667865.2224   22667871.2554   22667864.0744
        46.4004         34.2004
 -15727002.91448 -11671729.02347  21831913.0084   21831919.0134   21831912.2624
        52.0004         42.5004
  -3432907.71047  -1007335.62144  24486520.4424   24486526.9104   24486519.6754
        42.6004         25.1004
  -4766135.44947  -3144831.28244  23804458.0574   23804466.4524   23804459.0364
        44.0004         28.6004
  -5973503.47847  -4606758.61645  23581111.3914   23581116.0594   23581112.0664
        47.1004         31.4004
 -24281871.20548 -18877329.45748  20240172.1434   20240179.1454   20240171.9714
        53.7004         48.8004
  -5174487.65146  -3997279.80544  23925701.9834   23925709.8124   23925699.6334
        41.2004         28.3004
 -22423900.15049 -17442753.00648  20310738.5684   20310745.2894   20310737.7494
        54.4004         50.8004
 -11576508.94347  -8497236.65445  22410224.7274   22410231.4504   22410222.9754
        44.7004         30.7004
 -19243725.76448 -14969978.27647  21199604.9504   21199610.4534   21199604.5494
        53.4004         47.0004
 06 12 27  0 12  0.0000000  0 10G29G18G22G30G16G 6G10G 7G26G21
 -10413860.01347  -8068335.02945  22664795.1794   22664801.7514   22664795.4594
        47.5004         34.5004
 -15800958.17848 -11729356.48747  21817839.7254   21817845.8994   21817838.9244
        51.6004         42.9004
  -3538027.75847  -1089247.19144  24466516.5664   24466523.2634   24466516.5634
        42.6004         25.5004
  -4660676.18847  -3062655.27444  23824526.3804   23824535.0174   23824526.6034
        43.7004         28.3004
  -6024529.02047  -4646518.74745  23571401.6724   23571407.5944   23571398.7604
        45.0004         31.7004
 -24263640.14948 -18863123.44448  20243641.4044   20243648.3944   20243641.1394
        53.7004         48.8004
  -5068483.33147  -3914679.12844  23945873.6404   23945877.9064   23945875.6954
        43.3004         25.8004
 -22445938.86749 -17459926.03048  20306544.7234   20306551.3944   20306543.9524
        54.4004         50.8004
 -11630487.90547  -8539298.13545  22399952.4754   22399959.4544   22399952.0564
        46.1004         31.0004
 -19277691.52248 -14996445.08647  21193141.4074   21193146.8784   21193140.9044
        53.4004         47.0004
 06 12 27  0 12 30.0000000  0 10G29G18G22G30G16G 6G10G 7G26G21
 -10429444.87447  -8080479.05945  22661829.5324   22661837.1224   22661829.4624
        46.8004         34.9004
 -15874553.28948 -11786703.30547  21803835.0034   21803840.8764   21803834.5694
        52.3004         42.9004
  -3643018.65347  -1171058.12944  24446537.3244   24446543.2904   24446536.3554
        43.0004         25.8004
  -4555185.25447  -2980454.56844  23844600.7294   23844609.2134   23844601.6364
        43.7004         28.3004
  -6075067.20347  -4685899.16345  23561784.5844   23561789.8004   23561786.4554
        46.4004         31.7004
 -24244956.29349 -18848564.59248  20247196.7994   20247203.5844   20247196.4084
        54.1004         48.8004
  -4962360.81747  -3831986.14244  23966068.2544   23966076.9744   23966067.4074
        43.7004         26.5004
 -22467561.81949 -17476775.07948  20302429.9984   20302436.6714   20302429.3614
        54.4004         50.8004
 -11683943.56247  -8580951.86045  22389780.2984   22389787.5784   22389780.3684
        46.8004         31.7004
 -19311488.42648 -15022780.31147  21186710.0414   21186715.5084   21186709.5764
        53.4004         47.0004
 06 12 27  0 13  0.0000000  0 10G29G18G22G30G16G 6G10G 7G26G21
 -10444481.71047  -8092196.03145  22658968.1284   22658975.7434   22658968.9324
        47.8004         35.9004
 -15947787.93748 -11843769.24447  21789898.9454   21789904.8634   21789898.5374
        52.3004         42.9004
  -3747879.13647  -1252767.46644  24426582.9504   24426589.0494   24426583.1284
        42.6004         26.2004
  -4449665.38347  -2898231.31444  23864680.5114   23864688.5574   23864681.1354
        44.0004         28.6004
  -6125117.46247  -4724899.29445  23552260.3754   23552265.5394   23552259.8004
        46.8004         31.7004
 -24225819.68848 -18833652.95248  20250838.4024   20250845.2914   20250838.2864
        53.7004         48.8004
  -4856123.12046  -3749203.63544  23986284.5374   23986292.3194   23986283.0724
        41.6004         27.6004
 -22488768.10049 -17493299.45148  20298394.5824   20298401.4634   20298393.7644
        54.4004         50.8004
 -11736874.00847  -8622196.33045  22379708.0114   22379715.6164   22379707.6714
        47.1004         32.4004
 -19345117.70248 -15048984.91747  21180310.5754   21180316.1384   21180310.0864
        53.7004         47.0004
 06 12 27  0 13 30.0000000  0 10G29G18G22G30G16G 6G10G 7G26G21
 -10458969.06048  -8103484.85846  22656211.4174   22656218.6754   22656212.2814
        48.2004         36.6004
 -16020660.42248 -11900552.98247  21776031.7974   21776037.5704   21776031.3674
        52.3004         43.2004
  -3852607.07747  -1334373.55144  24406653.8024   24406660.2834   24406653.1664
        43.7004         26.5004
  -4344119.44347  -2815987.74544  23884765.1764   23884774.1124   23884766.4204
        44.0004         28.6004
  -6174678.08147  -4763517.97745  23542829.2834   23542834.6264   23542826.8304
        45.4004         31.4004
 -24206229.72848 -18818388.06048  20254566.2144   20254572.9104   20254566.0264
        53.7004         48.8004
  -4749772.77347  -3666333.24144  24006522.1354   24006528.5014   24006521.7914
        43.7004         26.2004
 -22509555.94449 -17509497.77348  20294438.7454   20294445.6414   20294437.9734
        54.4004         50.8004
 -11789276.05047  -8663029.07245  22369736.1414   22369744.2344   22369736.5444
        47.5004         32.8004
 -19378579.02848 -15075058.66147  21173943.1194   21173948.3584   21173942.7344
        53.7004         47.0004
 06 12 27  0 14  0.0000000  0 10G29G18G22G30G16G 6G10G 7G26G21
 -10472906.78847  -8114345.40546  22653559.3814   22653566.0044   22653559.6874
        47.8004         36.6004
 -16093170.42348 -11957054.26047  21762233.5784   21762239.5994   21762232.9104
        52.7004         43.2004
  -3957201.49647  -1415875.58344  24386750.1464   24386756.5724   24386750.3644
        43.3004         26.9004
  -4238551.59647  -2733727.11744  23904854.0444   23904863.2214   23904855.0634
        44.4004         29.3004
  -6223748.09047  -4801754.33945  23533491.5224   23533497.5074   23533489.0154
        44.7004         31.4004
 -24186186.90448 -18802770.27448  20258380.2614   20258387.2074   20258380.0754
        53.7004         48.8004
  -4643313.24546  -3583377.71444  24026780.7564   24026788.8144   24026779.0074
        41.6004         26.5004
 -22529924.81549 -17525369.62148  20290562.6724   20290569.4454   20290561.9864
        54.4004         50.8004
 -11841147.58647  -8703448.42845  22359865.4094   22359872.7994   22359865.4274
        47.8004         33.1004
 -19411873.32048 -15101002.24847  21167607.4394   21167612.8504   21167607.0114
        53.7004         47.0004
 06 12 27  0 14 30.0000000  0 10G29G18G22G30G16G 6G10G 7G26G21
 -10486291.94747  -8124775.37646  22651012.3314   22651019.8294   22651011.8714
        47.8004         36.6004
 -16165314.76048 -12013270.59747  21748504.9704   21748511.0494   21748504.1844
        52.7004         43.5004
  -4061658.87447  -1497270.84944  24366872.4574   24366878.7154   24366872.2654
        43.7004         26.9004
  -4132963.06647  -2651450.36544  23924946.7674   23924955.8704   23924947.7834
        44.4004         29.7004
  -6272324.79147  -4839606.27145  23524247.5984   23524252.5604   23524245.8434
        45.0004         31.0004
 -24165689.17149 -18786798.01348  20262280.8604   20262287.6944   20262280.7654
        54.1004         48.8004
  -4536745.39647  -3500337.94244  24047059.8804   24047067.5614   24047059.6974
        43.3004         26.5004
 -22549871.68249 -17540912.63048  20286766.8784   20286773.7354   20286766.1044
        54.4004         50.8004
 -11892484.38947  -8743451.10045  22350096.3854   22350104.3384   22350096.8404
        47.8004         33.8004
 -19444998.90148 -15126814.37247  21161303.8824   21161309.2784   21161303.4244
        53.7004         47.0004
 06 12 27  0 15  0.0000000  0 10G29G18G22G30G16G 6G10G 7G26G21
 -10499125.29747  -8134775.36246  22648570.2004   22648577.6084   22648569.0724
        46.8004         36.3004
 -16237094.32448 -12069202.69847  21734845.6894   21734851.6044   21734844.8604
        52.3004         43.5004
  -4165979.20247  -1578559.33344  24347020.9954   24347027.0304   24347019.8894
        43.7004         27.2004
  -4027358.49647  -2569161.12745  23945042.7074   23945051.7144   23945043.2614
        44.7004         30.0004
  -6320408.66447  -4877074.21745  23515097.4994   23515102.1864   23515094.6794
        45.0004         31.0004
 -24144737.97649 -18770472.41348  20266267.7074   20266274.5374   20266267.6154
        54.1004         48.8004
  -4430073.43747  -3417216.86544  24067359.1854   24067364.8264   24067358.2254
        43.3004         27.2004
 -22569396.79049 -17556127.00148  20283051.3674   20283058.3094   20283050.7164
        54.4004         50.8004
 -11943285.24047  -8783036.14445  22340429.4474   22340437.3504   22340429.4034
        47.1004         34.5004
 -19477957.74749 -15152496.58047  21155032.0474   21155037.3294   21155031.6164
        54.1004         47.0004
 06 12 27  0 15 30.0000000  0 10G29G18G22G30G16G 6G10G 7G26G21
 -10511405.46447  -8144344.29645  22646233.0174   22646240.9784   22646232.8194
        46.8004         35.9004
 -16308507.45848 -12124849.26547  21721256.1534   21721262.1454   21721255.4184
        52.3004         43.5004
  -4270160.83247  -1659739.75844  24327195.7864   24327202.0004   24327195.0334
        43.0004         26.9004
  -3921740.37647  -2486861.32545  23965141.1704   23965150.9064   23965141.9174
        45.0004         30.3004
  -6367997.75547  -4914156.64845  23506041.5624   23506049.6644   23506041.6964
        44.0004         31.4004
 -24123332.65949 -18753792.95248  20270341.0604   20270347.9304   20270340.8654
        54.1004         48.8004
  -4323299.65446  -3334016.51344  24087677.3654   24087685.2904   24087675.3394
        40.9004         25.8004
 -22588498.48149 -17571011.43148  20279416.4544   20279423.2194   20279415.7634
        54.4004         50.8004
 -11993547.15447  -8822201.23145  22330865.0594   22330874.3874   22330865.8734
        47.5004         34.9004
 -19510749.26449 -15178048.39847  21148792.0524   21148797.3414   21148791.5264
        54.1004         47.4004
 06 12 27  0 16  0.0000000  0 10G29G18G22G30G16G 6G10G 7G26G21
 -10523129.09747  -8153479.55445  22644002.0634   22644009.7634   22644000.9244
        46.4004         35.9004
 -16379550.65948 -12180207.57147  21707737.0334   21707743.0854   21707736.0374
        52.0004         43.5004
  -4374199.27146  -1740808.63444  24307397.7124   24307403.8534   24307396.9494
        41.9004         26.9004
  -3816109.39047  -2404551.50845  23985242.2054   23985251.1864   23985242.9124
        45.4004         30.7004
  -6415088.83047  -4950850.96545  23497080.3564   23497086.2824   23497080.8094
        45.7004         31.0004
 -24101470.64449 -18736757.61948  20274501.2474   20274508.1674   20274500.9354
        54.1004         48.8004
  -4216424.49047  -3250737.24244  24108014.9484   24108022.5664   24108014.2494
        44.4004         26.5004
 -22607173.05349 -17585563.04148  20275862.7734   20275869.6254   20275862.0534
        54.8004         50.8004
 -12043265.27147  -8860942.58545  22321403.8744   22321411.3744   22321403.1644
        47.1004         34.9004
 -19543371.94649 -15203468.65547  21142584.1564   21142589.4664   21142583.6344
        54.4004         47.4004
 06 12 27  0 16 30.0000000  0 10G29G18G22G30G16G 6G10G 7G26G21
 -10534297.06247  -8162181.82345  22641876.7244   22641883.6694   22641876.8654
        46.8004         35.6004
 -16450224.61648 -12235278.14547  21694288.1694   21694294.1924   21694287.4674
        52.0004         43.5004
  -4478094.86547  -1821766.19144  24287626.7824   24287633.5264   24287626.0264
        42.3004         26.9004
  -3710470.07447  -2322235.18945  24005344.8324   24005353.9894   24005345.9154
        45.7004         31.0004
  -6461682.36747  -4987157.58645  23488213.8794   23488221.6674   23488214.7774
        45.0004         31.0004
 -24079153.42048 -18719367.57048  20278748.0984   20278754.8004   20278747.6454
        53.7004         48.8004
  -4109452.38747  -3167382.28844  24128371.2924   24128378.3864   24128370.9964
        44.4004         27.2004
 -22625421.12949 -17599782.31148  20272390.2874   20272397.1394   20272389.5574
        54.4004         50.8004
 -12092438.48447  -8899259.35845  22312046.3264   22312052.7484   22312046.4624
        47.1004         34.5004
 -19575826.48549 -15228757.89647  21136408.2144   21136413.4524   21136407.7894
        54.1004         47.0004
 06 12 27  0 17  0.0000000  0 10G29G18G22G30G16G 6G10G 7G26G21
 -10544908.40447  -8170450.36145  22639857.4634   22639864.8904   22639856.3244
        46.1004         35.2004
 -16520528.67148 -12290060.48547  21680909.6854   21680916.0694   21680908.9894
        52.0004         43.5004
  -4581845.97946  -1902611.17444  24267883.5184   24267889.5004   24267882.6844
        41.9004         26.5004
  -3604825.65047  -2239914.89745  24025448.4604   24025457.1534   24025449.9374
        45.7004         31.4004
  -6507777.09347  -5023075.56245  23479442.3214   23479448.6704   23479442.7604
        45.4004         30.7004
 -24056380.93748 -18701622.78648  20283081.5434   20283088.4134   20283081.2954
        53.7004         48.8004
  -4002385.62246  -3083953.62744  24148745.4404   24148753.5374   24148743.9624
        41.2004         25.8004
 -22643241.30149 -17613668.15248  20268999.2384   20269006.0364   20268998.4244
        54.4004         50.8004
 -12141064.34747  -8937149.60845  22302792.9314   22302799.1094   22302793.0684
        47.5004         34.5004
 -19608114.38049 -15253917.28547  21130264.0404   21130269.2674   21130263.3334
        54.1004         47.0004
 06 12 27  0 17 30.0000000  0 10G29G18G22G30G16G 6G10G 7G26G21
 -10554960.41047  -8178283.07345  22637944.5424   22637950.4484   22637944.3374
        46.4004         34.5004
 -16590459.34848 -12344551.87847  21667602.2864   21667608.1154   21667601.6814
        52.0004         43.5004
  -4685448.71646  -1983340.53644  24248168.4964   24248175.5964   24248169.0824
        41.9004         26.5004
  -3499176.95547  -2157591.26445  24045552.8544   24045562.0954   24045553.8694
        45.4004         31.0004
  -6553369.81347  -5058602.33645  23470766.2294   23470771.9964   23470766.7664
        44.4004         30.7004
 -24033150.93249 -18683521.48848  20287502.0774   20287509.0424   20287501.9754
        54.1004         48.8004
  -3895224.84447  -3000451.79844  24169137.1924   24169144.3684   24169135.7854
        42.3004         25.5004
 -22660630.33549 -17627218.04048  20265690.2084   20265697.1054   20265689.4954
        54.4004         50.8004
 -12189138.28448  -8974609.79345  22293644.8134   22293651.0804   22293644.9914
        48.2004         35.2004
 -19640233.47149 -15278945.13947  21124151.9804   21124157.0774   21124151.2544
        54.1004         47.4004
 06 12 27  0 18  0.0000000  0 10G29G18G22G30G16G 6G10G 7G26G21
 -10564454.19347  -8185680.77245  22636138.0184   22636144.5434   22636136.7694
        46.4004         34.5004
 -16660017.47448 -12398752.97447  21654365.7614   21654371.9224   21654365.0954
        52.3004         43.9004
  -4788903.66547  -2063954.74244  24228481.5414   24228487.9554   24228481.8314
        43.0004         26.5004
  -3393528.67647  -2075267.96345  24065657.0284   24065665.4004   24065657.8324
        45.4004         30.7004
  -6598461.52747  -5093738.71545  23462185.5844   23462192.6414   23462185.0274
        45.7004         30.7004
 -24009465.31748 -18665065.16648  20292009.2764   20292016.1094   20292009.1744
        53.7004         48.8004
  -3787974.83347  -2916880.34344  24189546.2214   24189554.6214   24189544.9374
        43.7004         26.9004
 -22677588.93949 -17640432.53048  20262463.1114   20262469.9494   20262462.3794
        54.4004         50.8004
 -12236659.75948  -9011639.48045  22284601.7944   22284608.7824   22284601.6014
        48.2004         35.6004
 -19672185.47349 -15303842.79447  21118071.7304   21118076.9144   21118071.2244
        54.1004         47.4004
 06 12 27  0 18 30.0000000  0 10G29G18G22G30G16G 6G10G 7G26G21
 -10573390.17347  -8192643.85445  22634437.4434   22634443.4324   22634437.8154
        47.1004         34.9004
 -16729203.76048 -12452664.33147  21641200.0644   21641205.9484   21641199.5294
        52.3004         43.9004
  -4892210.30447  -2144453.39244  24208822.8594   24208830.0164   24208823.3304
        42.3004         26.9004
  -3287885.60447  -1992948.72045  24085760.4114   24085769.2934   24085761.1354
        45.4004         30.3004
  -6643051.99247  -5128484.53445  23453700.2874   23453708.0044   23453700.4214
        45.4004         30.7004
 -23985325.30848 -18646254.77748  20296602.9694   20296610.0804   20296602.8344
        53.7004         48.8004
  -3680639.38547  -2833242.30644  24209971.6544   24209979.6654   24209971.1164
        42.6004         26.9004
 -22694117.15349 -17653311.65348  20259317.8964   20259324.6054   20259317.2864
        54.4004         50.8004
 -12283627.65748  -9048237.80446  22275664.1074   22275670.4194   22275664.3084
        48.2004         36.3004
 -19703972.00849 -15328611.52047  21112022.9684   21112028.2744   21112022.2214
        54.1004         47.4004
 06 12 27  0 19  0.0000000  0 10G29G18G22G30G16G 6G10G 7G26G21
 -10581763.81947  -8199168.74145  22632844.1114   22632851.1974   22632843.7284
        47.1004         35.2004
 -16798012.92848 -12506281.82847  21628106.0984   21628112.4154   21628105.6144
        52.3004         43.9004
  -4995363.03747  -2224832.11744  24189193.4954   24189200.6124   24189193.7904
        43.3004         27.2004
  -3182246.71347  -1910632.73945  24105862.8914   24105870.7114   24105863.2684
        44.4004         30.0004
  -6687136.77447  -5162836.30745  23445311.2094   23445315.5994   23445311.3894
        45.7004         30.7004
 -23960726.78448 -18627087.09948  20301283.9524   20301290.8944   20301283.8244
        53.7004         48.8004
  -3573217.16846  -2749536.67944  24230413.5674   24230420.9184   24230413.3344
        41.6004         25.8004
 -22710210.00849 -17665851.52848  20256255.5314   20256262.4224   20256254.8474
        54.4004         50.8004
 -12330035.21048  -9084399.51046  22266833.1154   22266839.7234   22266832.8424
        48.2004         36.6004
 -19735589.29049 -15353248.35547  21106006.4084   21106011.6334   21106005.7764
        54.4004         47.4004
 06 12 27  0 19 30.0000000  0 10G29G18G22G30G16G 6G10G 7G26G21
 -10589575.91847  -8205256.08745  22631357.5114   22631363.3334   22631358.2874
        47.1004         35.2004
 -16866445.98148 -12559606.25247  21615083.6774   21615089.6564   21615083.2894
        52.7004         44.2004
  -5098362.10947  -2305091.11444  24169593.4444   24169600.1734   24169593.3294
        44.0004         27.9004
  -3076616.53247  -1828323.55644  24125963.6354   24125972.0504   24125964.1134
        44.4004         29.3004
  -6730716.43147  -5196794.48345  23437018.2274   23437024.8034   23437018.8594
        45.7004         30.7004
 -23935671.39748 -18607563.42648  20306051.8044   20306058.8474   20306051.5134
        53.7004         48.8004
  -3465712.55647  -2665766.88344  24250871.0904   24250878.5744   24250870.8114
        42.3004         25.5004
 -22725867.97749 -17678052.54048  20253275.8944   20253282.7374   20253275.2394
        54.4004         50.8004
 -12375882.09947  -9120124.32346  22258108.7664   22258115.7994   22258108.4324
        47.5004         36.9004
 -19767039.67349 -15377755.14447  21100021.6104   21100026.7984   21100021.0794
        54.1004         47.4004
 06 12 27  0 20  0.0000000  0 10G29G18G22G30G16G 6G10G 7G26G21
 -10596823.41947  -8210903.48245  22629978.3704   22629985.3984   22629977.8924
        47.1004         34.9004
 -16934499.36748 -12612634.82347  21602133.5304   21602139.6664   21602133.0644
        52.7004         44.2004
  -5201203.30847  -2385227.08944  24150023.5854   24150030.2364   24150023.7464
        43.7004         28.6004
  -2970995.41847  -1746021.43544  24146062.6144   24146071.4144   24146063.6684
        43.7004         28.6004
  -6773787.14047  -5230356.05845  23428822.0754   23428828.6564   23428822.3844
        46.1004         30.7004
 -23910156.55848 -18587681.73048  20310907.0984   20310913.8304   20310906.9224
        53.7004         48.4004
  -3358125.67047  -2581932.95344  24271344.0714   24271351.0634   24271342.6494
        43.7004         27.2004
 -22741087.34449 -17689911.77448  20250379.7324   20250386.5374   20250379.0644
        54.4004         50.8004
 -12421163.28048  -9155408.31146  22249491.8264   22249499.0994   22249491.5874
        48.2004         37.3004
 -19798320.19749 -15402129.57047  21094069.1364   21094074.4574   21094068.8204
        54.1004         47.4004
 06 12 27  0 20 30.0000000  0 10G29G18G22G30G16G 6G10G 7G26G21
 -10603508.45948  -8216112.57745  22628706.3104   22628712.9164   22628706.8624
        48.2004         35.2004
 -17002174.84748 -12665368.93647  21589255.3024   21589261.4474   21589255.0604
        52.7004         44.6004
  -5303887.94347  -2465241.07644  24130483.3944   24130490.4444   24130483.5444
        44.7004         29.0004
  -2865389.71247  -1663731.33344  24166158.6984   24166167.2044   24166159.3264
        44.0004         28.3004
  -6816350.85147  -5263522.59545  23420722.5124   23420727.3754   23420721.2424
        45.0004         30.7004
 -23884185.29448 -18567444.38348  20315849.2254   20315856.0814   20315849.0004
        53.7004         48.4004
  -3250462.16847  -2498039.31544  24291831.7634   24291838.3484   24291830.7364
        44.0004         27.9004
 -22755869.71049 -17701430.49548  20247566.7564   20247573.3864   20247566.2024
        54.4004         50.8004
 -12465878.89848  -9190251.60846  22240982.5924   22240991.1544   22240982.9384
        48.5004         37.6004
 -19829434.41949 -15426374.40847  21088148.2764   21088153.3264   21088147.8894
        54.1004         47.7004
 06 12 27  0 21  0.0000000  0 10G29G18G22G30G16G 6G10G 7G26G21
 -10609627.56948  -8220880.69945  22627541.9554   22627549.3904   22627541.8394
        48.2004         35.6004
 -17069468.94548 -12717805.86047  21576449.6914   21576455.8624   21576449.2754
        52.7004         44.6004
  -5406411.59347  -2545129.61144  24110973.8914   24110980.2644   24110974.1904
        44.4004         29.3004
  -2759799.17947  -1581453.04744  24186251.9664   24186260.3384   24186251.8364
        43.7004         27.9004
  -6858403.79747  -5296291.11945  23412719.9544   23412727.1154   23412720.5314
        46.8004         30.7004
 -23857754.49548 -18546848.95048  20320878.8574   20320885.6484   20320878.5594
        53.7004         48.4004
  -3142721.55347  -2414085.56744  24312334.1754   24312341.2844   24312332.9424
        43.0004         27.9004
 -22770211.33949 -17712605.78348  20244837.6364   20244844.3184   20244836.9214
        54.8004         50.5004
 -12510024.17548  -9224650.47746  22232582.1824   22232590.4544   22232582.4834
        49.2004         38.3004
 -19860379.45149 -15450487.40747  21082259.6624   21082264.7214   21082259.2764
        54.1004         47.7004
 06 12 27  0 21 30.0000000  0 10G29G18G22G30G16G 6G10G 7G26G21
 -10615180.94347  -8225207.97745  22626485.1424   22626492.0744   22626484.3814
        47.5004         35.6004
 -17136381.53748 -12769945.51147  21563716.6474   21563722.5314   21563716.1604
        53.0004         44.6004
  -5508773.67947  -2624892.26144  24091495.0514   24091501.1524   24091495.2354
        44.0004         29.7004
  -2654227.60747  -1499189.53044  24206341.6564   24206349.4934   24206343.8374
        43.7004         27.6004
  -6899945.68047  -5328661.41345  23404814.7844   23404820.1234   23404814.9444
        45.0004         31.0004
 -23830865.13148 -18525896.20148  20325995.7174   20326002.6344   20325995.5364
        53.7004         48.4004
  -3034907.25647  -2330074.41444  24332850.4194   24332856.7334   24332849.2394
        42.6004         26.2004
 -22784111.81149 -17723437.31448  20242192.4474   20242199.1704   20242191.6424
        54.4004         50.5004
 -12553597.49548  -9258603.67046  22224290.5394   22224298.5164   22224291.0934
        49.6004         38.3004
 -19891156.29149 -15474469.35147  21076403.0314   21076408.2034   21076402.4404
        54.1004         47.7004
 06 12 27  0 22  0.0000000  0 10G29G18G22G30G16G 6G10G 7G26G21
 -10620168.63047  -8229094.45345  22625535.7784   22625542.7994   22625534.9384
        47.5004         35.2004
 -17202912.28048 -12821787.61847  21551056.2644   21551061.8344   21551055.7454
        53.0004         44.9004
  -5610973.03247  -2704528.10845  24072047.1534   24072053.8234   24072047.4284
        45.0004         30.0004
  -2548678.66147  -1416943.65344  24226426.9494   24226435.8534   24226427.7734
        44.0004         27.2004
  -6940976.36047  -5360633.38345  23397006.9614   23397013.8024   23397006.7894
        44.7004         31.0004
 -23803517.82148 -18504586.60648  20331199.7904   20331206.5854   20331199.9034
        53.7004         48.4004
  -2927022.44046  -2246008.31344  24353380.1624   24353388.8664   24353379.0864
        40.9004         24.1004
 -22797570.60549 -17733924.67548  20239631.3014   20239637.9854   20239630.4854
        54.4004         50.5004
 -12596597.12348  -9292109.84446  22216108.0304   22216114.7654   22216108.1984
        49.2004         38.3004
 -19921765.49049 -15498320.65847  21070578.2964   21070583.3164   21070577.7434
        54.1004         47.7004
 06 12 27  0 22 30.0000000  0 10G29G18G22G30G16G 6G10G 7G26G21
 -10624589.17647  -8232539.03145  22624694.3514   22624701.4834   22624694.8604
        47.8004         35.2004
 -17269059.39748 -12873330.80547  21538468.8674   21538474.8554   21538468.4494
        53.0004         44.9004
  -5713007.38147  -2784035.39145  24052630.6794   24052636.6874   24052630.4704
        45.4004         30.0004
  -2443154.33147  -1334716.93344  24246507.7164   24246515.8204   24246507.9024
        44.0004         26.9004
  -6981494.19247  -5392205.71045  23389296.6334   23389303.6214   23389295.9474
        45.0004         31.4004
 -23775711.70148 -18482919.50148  20336491.1194   20336498.2854   20336491.1504
        53.7004         48.4004
  -2819069.04846  -2161888.78343  24373923.0394   24373927.7394   24373922.4854
        38.8004         21.3004
 -22810585.79249 -17744066.37148  20237154.5624   20237161.3594   20237153.8704
        54.4004         50.5004
 -12639019.77448  -9325166.43246  22208035.1484   22208041.5774   22208034.5484
        48.9004         38.0004
 -19952206.86448 -15522041.19647  21064785.4954   21064790.4934   21064784.8234
        53.7004         47.7004
 06 12 27  0 23  0.0000000  0 10G29G18G22G30G16G 6G10G 7G26G21
 -10628441.71747  -8235540.99745  22623961.3004   22623967.7724   22623960.7284
        47.5004         34.9004
 -17334821.68248 -12924574.11547  21525954.7224   21525960.8224   21525954.4524
        53.0004         44.9004
  -5814874.58247  -2863412.43144  24033246.0654   24033252.4544   24033246.0104
        45.0004         29.7004
  -2337657.14747  -1252511.36744  24266583.2854   24266591.5634   24266584.5534
        44.0004         26.5004
  -7021497.65647  -5423377.23345  23381684.2594   23381690.3004   23381684.1874
        45.7004         31.4004
 -23747446.57149 -18460894.72848  20341869.8224   20341876.6704   20341869.6974
        54.1004         48.4004
  -2711048.91246  -2077717.19243  24394478.5954   24394483.2854   24394475.3564
        37.4004         18.2004
 -22823155.83649 -17753861.19948  20234762.5544   20234769.2604   20234761.7664
        54.4004         50.5004
 -12680862.70748  -9357771.27846  22200072.5344   22200080.2294   22200071.8204
        49.2004         38.0004
 -19982479.92149 -15545630.57447  21059024.6914   21059029.8304   21059024.0414
        54.1004         47.7004
 06 12 27  0 23 30.0000000  0 10G29G18G22G30G16G 6G10G 7G26G21
 -10631725.90647  -8238100.08545  22623336.3464   22623343.3984   22623336.5604
        47.8004         35.6004
 -17400198.49848 -12975517.05947  21513513.9284   21513519.6104   21513513.3354
        53.4004         44.9004
  -5916573.35147  -2942658.23544  24013893.4554   24013899.9374   24013893.6274
        44.4004         29.3004
  -2232190.46847  -1170329.58244  24286653.1484   24286661.3124   24286652.9904
        44.4004         26.5004
  -7060986.21247  -5454147.53945  23374169.8494   23374175.9204   23374169.2594
        45.4004         31.4004
 -23718722.52548 -18438512.35448  20347335.8294   20347342.7084   20347335.6034
        53.7004         48.4004
  -2602965.11845  -1993496.06342  24415046.3474                   24415045.3164
        35.0004         14.4004
 -22835279.82649 -17763308.45348  20232455.4204   20232462.2444   20232454.5934
        54.4004         50.5004
 -12722124.11048  -9389922.97046  22192220.5394   22192228.0964   22192220.0764
        48.9004         38.3004
 -20012585.02448 -15569089.08047  21053295.8334   21053300.7454   21053295.0674
        53.7004         47.7004
 06 12 27  0 24  0.0000000  0 10G29G18G22G30G16G 6G10G 7G26G21
 -10634439.68448  -8240214.70345  22622819.9784   22622827.8314   22622820.4674
        48.2004         35.9004
 -17465187.43648 -13026157.77247  21501146.9744   21501152.9964   21501146.3564
        53.4004         45.3004
  -6018100.74847  -3021770.51844  23994573.4284   23994579.6674   23994573.1434
        44.7004         29.3004
  -2126755.30347  -1088172.36644  24306717.0534   24306724.3844   24306716.6304
        44.4004         26.5004
  -7099957.48647  -5484514.75645  23366753.8764   23366760.4444   23366752.7544
        45.4004         31.4004
 -23689538.17148 -18415771.30648  20352889.4514   20352896.4234   20352889.1384
        53.7004         48.4004
  -2494817.83845  -1909225.42241  24435625.7654                   24435626.5184
        34.3004         11.6004
 -22846955.30549 -17772406.22648  20230233.6484   20230240.4724   20230232.9214
        54.4004         50.5004
 -12762800.18548  -9421618.57546  22184480.0984   22184488.2874   22184480.4844
        49.6004         38.7004
 -20042520.33649 -15592415.28647  21047599.3224   21047604.3934   21047598.7414
        54.1004         47.7004
 06 12 27  0 24 30.0000000  0 10G29G18G22G30G16G 6G10G 7G26G21
 -10636585.50447  -8241886.74145  22622411.5934   22622419.0774   22622410.7714
        46.8004         35.6004
 -17529790.29848 -13076497.63947  21488853.4704   21488859.2214   21488852.7974
        53.4004         45.3004
  -6119457.93847  -3100750.16344  23975285.8644   23975291.7194   23975285.6654
        44.7004         29.0004
  -2021357.71647  -1006044.42144  24326773.7444   24326781.3894   24326774.4844
        44.4004         26.5004
  -7138413.23747  -5514480.26645  23359435.9794   23359442.1514   23359434.7904
        44.7004         31.7004
 -23659896.43448 -18392673.85848  20358530.0754   20358536.9844   20358529.8834
        53.7004         48.4004
  -2386612.18945  -1824909.3034
        31.8004          5.3004
 -22858183.97049 -17781155.82748  20228096.8764   20228103.7814   20228096.1504
        54.1004         50.5004
 -12802891.31648  -9452858.39046  22176851.1844   22176858.3814   22176851.6654
        49.6004         39.0004
 -20072289.32048 -15615611.87747  21041934.4394   21041939.5944   21041933.7724
        53.7004         47.7004
 06 12 27  0 25  0.0000000  0 10G29G18G22G30G16G 6G10G 7G26G21
 -10638159.11047  -8243112.89445  22622112.0314   22622120.2784   22622112.0284
        47.5004         35.6004
 -17594002.35748 -13126532.98747  21476634.3564   21476639.9384   21476633.6764
        53.4004         45.3004
  -6220639.44147  -3179592.91344  23956031.6804   23956037.5154   23956030.9854
        44.7004         28.3004
  -1915996.97347   -923945.17844  24346823.1844   24346830.9834   24346822.8954
        44.4004         26.9004
  -7176348.97047  -5544040.56545  23352216.9274   23352223.2134   23352215.6084
        45.4004         32.1004
 -23629793.58648 -18369217.10248  20364258.4444   20364265.5104   20364258.2274
        53.7004         48.4004
  -2278349.15714   1743360.989 9
        27.700         -24.200
 -22868960.97049 -17789553.48848  20226046.0874   20226053.0144   20226045.3004
        54.1004         50.5004
 -12842391.81748  -9483637.96846  22169334.5054   22169341.3054   22169334.6694
        49.6004         39.0004
 -20101888.45248 -15638676.12047  21036301.8984   21036307.2284   21036301.3624
        53.7004         47.7004
 06 12 27  0 25 30.0000000  0  9G29G18G22G30G16G 6G 7G26G21
 -10639162.13447  -8243894.44545  22621921.1474   22621929.4644   22621920.6704
        47.1004         35.9004
 -17657825.61448 -13176265.36647  21464489.1384   21464494.8894   21464488.5744
        53.4004         45.3004
  -6321646.27547  -3258299.54444  23936810.7364   23936816.7904   23936811.2904
        44.4004         28.3004
  -1810677.72947   -841878.27844  24366864.7524   24366872.5824   24366864.8604
        44.0004         27.2004
  -7213765.78547  -5573196.50745  23345096.6624   23345102.4954   23345095.9864
        45.0004         32.1004
 -23599231.95248 -18345402.84248  20370074.1624   20370081.1264   20370074.2314
        53.4004         48.4004
 -22879287.39249 -17797600.04448  20224080.9934   20224087.8954   20224080.2814
        54.1004         50.5004
 -12881301.70748  -9513957.32746  22161930.1614   22161936.6094   22161930.5154
        49.6004         39.0004
 -20131319.60049 -15661609.46147  21030701.2894   21030706.4384   21030700.7594
        54.4004         47.7004
 06 12 27  0 26  0.0000000  0  9G29G18G22G30G16G 6G 7G26G21
 -10639592.41047  -8244229.69145  22621839.2664   22621845.8694   22621839.7864
        47.8004         35.6004
 -17721257.10548 -13225692.47347  21452418.4774   21452424.2974   21452417.7304
        53.4004         45.3004
  -6422474.60547  -3336867.07844  23917623.7124   23917629.7784   23917622.7744
        44.0004         28.3004
  -1705401.28847   -759844.73944  24386898.1204   24386906.3344   24386898.5514
        43.7004         27.2004
  -7250661.05047  -5601946.05145  23338075.6644   23338081.3074   23338075.2074
        46.1004         32.1004
 -23568209.74548 -18321229.70248  20375977.4914   20375984.4444   20375977.5944
        53.4004         48.4004
 -22889160.46449 -17805293.34548  20222202.1804   20222209.1114   20222201.3914
        54.4004         50.5004
 -12919616.68848  -9543813.12446  22154639.0084   22154645.3684   22154638.9634
        49.6004         39.0004
 -20160581.31649 -15684410.78247  21025132.9984   21025138.1014   21025132.3544
        54.1004         47.7004
 06 12 27  0 26 30.0000000  0  9G29G18G22G30G16G 6G 7G26G21
 -10639449.80947  -8244118.55845  22621866.6544   22621873.7274   22621866.7084
        47.5004         35.9004
 -17784296.07848 -13274813.72647  21440422.4724   21440428.3454   21440421.8954
        53.4004         45.3004
  -6523123.36847  -3415294.67944  23898470.7264   23898476.9914   23898470.2034
        44.4004         28.3004
  -1600170.88547   -677847.08844  24406922.5804   24406930.8354   24406923.0394
        43.3004         27.6004
  -7287034.85747  -5630289.28345  23331153.9144   23331160.5624   23331153.5394
        45.4004         32.1004
 -23536727.46848 -18296698.05948  20381968.3784   20381975.3424   20381968.1674
        53.7004         48.4004
 -22898579.37649 -17812632.75748  20220409.8124   20220416.6654   20220409.0524
        54.4004         50.5004
 -12957335.18548  -9573204.14046  22147461.4754   22147468.6694   22147462.5314
        49.9004         39.4004
 -20189673.99749 -15707080.39147  21019596.8094   21019602.0154   21019596.3864
        54.1004         47.7004
 06 12 27  0 27  0.0000000  0  9G29G18G22G30G16G 6G 7G26G21
 -10638735.02847  -8243561.60945  22622002.6874   22622007.1814   22622002.5744
        47.1004         34.9004
 -17846942.51148 -13323629.09847  21428501.2114   21428507.0354   21428500.4984
        53.4004         45.3004
  -6623591.83147  -3493581.77144  23879352.1534   23879358.1064   23879351.9294
        44.0004         28.6004
  -1494989.80547   -595887.85544  24426937.7694   24426945.8604   24426937.6934
        43.3004         27.6004
  -7322886.99647  -5658225.98545  23324331.3944   23324338.1494   23324331.2814
        45.0004         32.4004
 -23504786.13148 -18271808.70748  20388046.6414   20388053.5754   20388046.6094
        53.7004         48.4004
 -22907544.13549 -17819618.28248  20218703.8704   20218710.8984   20218703.1734
        54.4004         50.5004
 -12994455.85748  -9602129.29846  22140397.7804   22140405.4334   22140397.7724
        50.3004         39.7004
 -20218598.43249 -15729618.89847  21014092.6314   21014097.8674   21014092.2874
        54.1004         47.7004
 06 12 27  0 27 30.0000000  0  9G29G18G22G30G16G 6G 7G26G21
 -10637446.34647  -8242557.42945  22622248.0474   22622251.6974   22622246.5154
        46.4004         34.2004
 -17909195.04048 -13372137.53547  21416654.9004   21416660.9484   21416654.4994
        53.4004         45.3004
  -6723877.16347  -3571726.13944  23860268.5674   23860274.8654   23860268.2504
        45.0004         29.0004
  -1389859.97947   -513968.56344  24446943.1404   24446951.6054   24446943.9534
        43.3004         27.6004
  -7358215.25647  -5685754.49345  23317608.7184   23317615.0904   23317607.6264
        45.4004         32.4004
 -23472384.73548 -18246560.87248  20394212.4144   20394219.3504   20394212.2914
        53.7004         48.4004
 -22916052.32049 -17826248.04148  20217084.8034   20217091.7234   20217084.1144
        54.4004         50.5004
 -13030975.51748  -9630586.15046  22133448.3854   22133455.2764   22133448.4034
        49.9004         39.7004
 -20247353.42149 -15752025.37447  21008620.7204   21008625.7494   21008620.1154
        54.1004         47.7004
 06 12 27  0 28  0.0000000  0  9G29G18G22G30G16G 6G 7G26G21
 -10635583.99847  -8241106.24845  22622602.1734   22622607.2204   22622601.3794
        45.7004         33.8004
 -17971053.33448 -13420338.77347  21404883.6984   21404889.4994   21404883.1484
        53.0004         45.6004
  -6823978.54047  -3649727.15444  23841219.9184   23841225.8744   23841220.1274
        45.4004         29.7004
  -1284785.04747   -432092.03944  24466938.2554   24466946.1644   24466938.5814
        43.0004         27.6004
  -7393019.64347  -5712874.78445  23310985.6074   23310992.1344   23310985.7804
        45.7004         32.4004
 -23439523.96348 -18220955.08348  20400465.5744   20400472.5514   20400465.3924
        53.4004         48.1004
 -22924103.50149 -17832521.69248  20215552.7084   20215559.5584   20215551.9354
        54.8004         50.5004
 -13066892.51948  -9658573.39546  22126613.4624   22126619.7124   22126613.1944
        49.2004         39.4004
 -20275939.79549 -15774300.45947  21003180.8784   21003186.1144   21003180.2914
        54.1004         47.7004
 06 12 27  0 28 30.0000000  0  9G29G18G22G30G16G 6G 7G26G21
 -10633146.13447  -8239206.56845  22623065.9764   22623071.1444   22623064.5884
        45.0004         33.5004
 -18032514.48448 -13468230.55047  21393187.9834   21393193.6514   21393187.3754
        53.4004         45.6004
  -6923892.57047  -3727582.17545  23822206.8594   23822212.7594   23822206.3904
        45.0004         30.3004
  -1179765.87247   -350258.96344  24486922.8044   24486931.7304   24486923.1964
        43.0004         27.2004
  -7427297.50947  -5739584.80145  23304462.7874   23304469.2574   23304462.5064
        45.7004         32.4004
 -23406202.36548 -18194990.21048  20406806.4314   20406813.2354   20406806.1224
        53.7004         48.1004
 -22931695.07349 -17838437.20348  20214108.0904   20214114.9384   20214107.4454
        55.1004         50.5004
 -13102203.20748  -9686088.19346  22119893.8424   22119900.2784   22119893.4964
        48.9004         38.7004
 -20304355.93149 -15796442.89647  20997773.4374   20997778.6424   20997773.0544
        54.1004         47.7004
 06 12 27  0 29  0.0000000  0  9G29G18G22G30G16G 6G 7G26G21
 -10630133.37347  -8236858.93845  22623638.7034   22623645.9864   22623637.1324
        44.7004         33.1004
 -18093579.26548 -13515813.46047  21381567.7684   21381573.5914   21381567.1794
        53.4004         45.6004
  -7023619.03747  -3805291.02845  23803229.4864   23803235.0234   23803228.8684
        45.7004         30.7004
  -1074806.02046   -268472.13044  24506896.1594   24506905.1074   24506896.3894
        41.9004         27.2004
  -7461049.67947  -5765885.16445  23298039.9184   23298046.6384   23298039.6634
        46.1004         32.4004
 -23372421.23148 -18168667.25348  20413234.7754   20413241.5614   20413234.5424
        53.7004         48.1004
 -22938827.16649 -17843994.68348  20212750.9254   20212757.7444   20212750.2544
        55.1004         50.8004
 -13136906.61048  -9713129.78446  22113289.8114   22113295.4974   22113289.6684
        48.9004         38.7004
 -20332602.93448 -15818453.54047  20992398.2014   20992403.1954   20992397.6854
        53.7004         47.7004
 06 12 27  0 29 30.0000000  0  9G29G18G22G30G16G 6G 7G26G21
 -10626545.77347  -8234063.36445  22624321.0804   22624329.5904   22624322.1584
        47.1004         34.5004
 -18154247.11848 -13563087.07647  21370023.0274   21370028.8004   21370022.4714
        53.4004         46.0004
  -7123156.35347  -3882852.49545  23784288.0734   23784294.5584   23784287.4704
        45.4004         31.0004
   -969908.72147   -186734.02144  24526857.3854   24526865.7384   24526857.2004
        42.3004         26.5004
  -7494275.37547  -5791775.30845  23291717.2954   23291722.8394   23291717.3104
        46.4004         32.4004
 -23338180.85348 -18141986.43948  20419750.4824   20419756.9984   20419750.1714
        53.7004         48.1004
 -22945498.98849 -17849193.50248  20211481.3774   20211488.1494   20211480.7234
        55.1004         50.8004
 -13171000.81848  -9739696.66946  22106801.7374   22106810.0094   22106801.3804
        48.5004         38.7004
 -20360681.03148 -15840332.56747  20987055.0854   20987060.1754   20987054.5744
        53.7004         47.7004
 06 12 27  0 30  0.0000000  0  9G29G18G22G30G16G 6G 7G26G21
 -10622381.16247  -8230818.17845  22625114.0444   22625121.3854   22625114.6894
        46.8004         34.9004
 -18214514.89748 -13610048.94447  21358554.4364   21358560.0904   21358553.5514
        53.0004         46.0004
  -7222500.98847  -3960263.81445  23765383.3404   23765389.2544   23765383.3974
        46.1004         31.4004
   -865075.29746   -105045.70044  24546806.6604   24546815.8754   24546807.9684
        40.9004         26.2004
  -7526972.38747  -5817253.49145  23285495.1954   23285501.5214   23285495.5074
        45.7004         32.4004
 -23303479.52148 -18114946.44148  20426353.9374   20426360.8324   20426353.7904
        53.4004         48.1004
 -22951707.62749 -17854031.40348  20210299.9324   20210306.6654   20210299.2714
        55.1004         50.8004
 -13204482.14548  -9765785.97546  22100430.4014   22100438.2424   22100430.8204
        48.9004         39.0004
 -20388588.39448 -15862078.55548  20981744.4954   20981749.5454   20981743.9914
        53.7004         48.1004
 06 12 27  0 30 30.0000000  0  9G29G18G22G30G16G 6G 7G26G21
 -10617641.50448  -8227124.93845  22626016.2084   22626023.9464   22626017.7544
        48.2004         35.6004
 -18274384.22048 -13656700.33047  21347161.6184   21347167.0344   21347160.9284
        53.4004         46.0004
  -7321653.92947  -4037525.76645  23746515.1964   23746520.6954   23746514.4604
        46.1004         31.7004
   -760310.32246    -23410.70744  24566742.7284   24566752.0174   24566741.9784
        40.5004         25.1004
  -7559141.87347  -5842320.60145  23279373.5004   23279380.3204   23279372.9054
        46.4004         32.4004
 -23268319.76948 -18087549.23848  20433044.5904   20433051.3684   20433044.3484
        53.4004         48.1004
 -22957454.20049 -17858509.24948  20209206.3904   20209213.2034   20209205.7484
        55.1004         50.8004
 -13237350.67148  -9791397.78546  22094175.8354   22094183.5804   22094176.5504
        49.6004         39.0004
 -20416327.02048 -15883693.06548  20976466.0454   20976471.2524   20976465.5154
        53.7004         48.1004
 06 12 27  0 31  0.0000000  0  9G29G18G22G30G16G 6G 7G26G21
 -10612326.31547  -8222983.20345  22627028.2254   22627034.5014   22627028.3544
        47.1004         35.9004
 -18333854.24048 -13703040.57147  21335844.8244   21335850.6204   21335844.1824
        53.0004         46.0004
  -7420613.00947  -4114636.65545  23727684.0104   23727689.9374   23727684.3464
        46.4004         31.7004
   -655616.01346     58169.21544  24586665.3664   24586674.4474   24586665.0164
        40.5004         24.8004
  -7590782.75347  -5866975.82145  23273352.4744   23273359.5344   23273351.4844
        46.1004         32.4004
 -23232701.26448 -18059794.56547  20439822.5954   20439829.6804   20439822.4454
        53.4004         47.7004
 -22962737.52549 -17862626.12348  20208201.0404   20208207.7504   20208200.3344
        55.1004         50.8004
 -13269604.05448  -9816530.27446  22088038.5494   22088046.1064   22088039.6484
        49.2004         39.0004
 -20443896.68048 -15905175.91048  20971219.6744   20971224.8774   20971219.2074
        53.7004         48.1004
 06 12 27  0 31 30.0000000  0  9G29G18G22G30G16G 6G 7G26G21
 -10606435.50447  -8218392.95345  22628148.9994   22628153.3704   22628148.1694
        47.1004         34.9004
 -18392924.50548 -13749069.31947  21324604.0894   21324609.9994   21324603.3144
        53.4004         46.0004
  -7519377.04147  -4191595.57145  23708889.8124   23708895.4004   23708889.3374
        45.7004         31.7004
   -550996.18846    139691.10144  24606573.8454   24606582.8194   24606573.9034
        40.5004         24.4004
  -7621894.62047  -5891218.80645  23267432.0854   23267439.9564   23267431.8724
        47.1004         32.4004
 -23196624.66648 -18031682.94547  20446687.7334   20446694.7224   20446687.5734
        53.4004         47.7004
 -22967556.84349 -17866381.43948  20207283.9724   20207290.6084   20207283.2094
        55.1004         50.8004
 -13301240.67248  -9841182.16446  22082018.2864   22082025.0434   22082018.3174
        48.5004         38.3004
 -20471297.61548 -15926527.28748  20966005.4624   20966010.7884   20966004.9474
        53.7004         48.1004
 06 12 27  0 32  0.0000000  0  9G29G18G22G30G16G 6G 7G26G21
 -10599967.02947  -8213352.55845  22629379.9214   22629385.2574   22629379.4174
        47.5004         34.9004
 -18451592.24948 -13794784.40747  21313439.9324   21313445.6994   21313439.3134
        53.4004         46.0004
  -7617942.30347  -4268399.60045  23690133.4164   23690138.9674   23690132.4934
        46.1004         31.4004
   -446451.06346    221154.77744  24626468.5164   24626477.5174   24626468.4314
        40.9004         24.1004
  -7652475.24147  -5915047.87245  23261612.8754   23261619.6684   23261612.3014
        44.7004         32.4004
 -23160088.27848 -18003213.03347  20453640.3284   20453647.1584   20453640.1804
        53.0004         47.7004
 -22971909.29949 -17869772.96348  20206455.7634   20206462.3864   20206455.0624
        55.1004         50.8004
 -13332256.63548  -9865350.41146  22076116.0664   22076123.2314   22076117.0824
        48.9004         38.3004
 -20498527.88648 -15947745.66848  20960823.6974   20960829.0144   20960823.1244
        53.7004         48.1004
 06 12 27  0 32 30.0000000  0  9G29G18G22G30G16G 6G 7G26G21
 -10592921.50847  -8207862.53745  22630720.5764   22630725.7874   22630720.3284
        47.5004         34.9004
 -18509857.42048 -13840185.80847  21302352.4044   21302358.1074   21302351.8794
        53.0004         46.0004
  -7716308.27147  -4345048.34045  23671414.9344   23671419.4504   23671414.3214
        45.7004         31.4004
   -341983.67446    302557.89543  24646348.1034   24646356.1604   24646348.1484
        40.9004         23.7004
  -7682524.49747  -5938462.85645  23255894.6654   23255901.1064   23255893.7004
        46.8004         32.4004
 -23123092.93048 -17974385.49147  20460680.2684   20460687.3714   20460680.1764
        53.4004         47.7004
 -22975794.60549 -17872800.47248  20205716.4284   20205723.0844   20205715.6844
        54.8004         50.8004
 -13362650.87947  -9889034.21246  22070332.3464   22070338.2734   22070331.5374
        47.8004         38.0004
 -20525587.97649 -15968831.44348  20955674.3454   20955679.5934   20955673.8594
        54.1004         48.1004
 06 12 27  0 33  0.0000000  0  9G29G18G22G30G16G 6G 7G26G21
 -10585296.82447  -8201921.19945  22632171.3894   22632175.8244   22632171.7144
        47.5004         34.5004
 -18567716.96648 -13885271.13647  21291342.0604   21291347.7964   21291341.5214
        53.0004         46.0004
  -7814471.31047  -4421538.95245  23652735.0154   23652740.2254   23652734.1934
        45.4004         31.0004
   -237594.91246    383899.73243  24666212.5734   24666220.3594   24666213.3564
        41.2004         23.7004
  -7712039.88647  -5961461.85045  23250278.0854   23250284.6034   23250277.5684
        45.7004         32.4004
 -23085637.01748 -17945199.06947  20467807.9074   20467814.7894   20467807.7424
        53.4004         47.7004
 -22979209.82549 -17875461.67948  20205066.4914   20205073.1754   20205065.6144
        54.8004         50.5004
 -13392419.39448  -9912230.43846  22064667.4174   22064672.8164   22064668.5784
        48.9004         37.6004
 -20552475.78049 -15989782.96248  20950557.7774   20950562.6614   20950557.2114
        54.1004         48.1004
 06 12 27  0 33 30.0000000  0  9G29G18G22G30G16G 6G 7G26G21
 -10577094.84447  -8195530.02145  22633732.1974   22633737.0214   22633732.2834
        47.5004         34.5004
 -18625172.74248 -13930041.83847  21280408.5284   21280414.2084   21280407.7904
        53.4004         46.0004
  -7912431.74447  -4497871.70145  23634093.6854   23634098.5624   23634093.5184
        45.7004         30.7004
   -133289.59146    465176.56843  24686061.0994   24686069.3554   24686061.6854
        41.6004         23.7004
  -7741022.87447  -5984045.99445  23244762.6834   23244768.7204   23244762.0164
        46.4004         32.4004
 -23047722.83248 -17915655.55847  20475022.7284   20475029.5514   20475022.4574
        53.7004         47.7004
 -22982156.21749 -17877757.56848  20204505.8104   20204512.4814   20204505.0024
        54.8004         50.5004
 -13421562.47748  -9934939.31046  22059121.6814   22059127.6174   22059121.1584
        48.2004         37.3004
 -20579193.55949 -16010602.00248  20945473.5264   20945478.8114   20945472.9114
        54.1004         48.1004
 06 12 27  0 34  0.0000000  0  9G29G18G22G30G16G 6G 7G26G21
 -10568313.51847  -8188687.43945  22635403.1384   22635408.8144   22635403.2664
        47.8004         34.5004
 -18682222.16448 -13974495.91147  21269552.3614   21269557.8554   21269551.7964
        53.4004         46.0004
  -8010186.05647  -4574043.83045  23615491.6844   23615497.5174   23615491.1564
        45.7004         30.3004
    -29068.43447    546387.81243  24705893.9674   24705901.7444   24705894.1854
        42.6004         23.7004
  -7769470.74247  -6006213.15345  23239349.2134   23239354.3534   23239347.8844
        47.5004         32.4004
 -23009348.64848 -17885753.59947  20482325.0704   20482332.0074   20482325.0414
        53.7004         47.7004
 -22984630.85649 -17879685.86048  20204034.8794   20204041.7074   20204034.0584
        54.8004         50.5004
 -13450076.21247  -9957157.79646  22053695.5204   22053702.1564   22053695.2444
        47.5004         36.9004
 -20605739.31049 -16031286.99448  20940422.0304   20940427.1684   20940421.5584
        54.1004         48.1004
 06 12 27  0 34 30.0000000  0  9G29G18G22G30G16G 6G 7G26G21
 -10558954.72247  -8181394.88445  22637184.1104   22637189.5724   22637182.8044
        47.1004         34.5004
 -18738866.07348 -14018633.99847  21258773.3914   21258778.9454   21258772.6384
        53.4004         46.3004
  -8107734.55447  -4650055.58645  23596928.6834   23596933.4644   23596928.8164
        45.7004         30.3004
     75064.14047    627530.04943  24725709.7334   24725718.8264   24725710.2874
        43.0004         23.4004
  -7797384.90647  -6027964.44645  23234037.1264   23234043.9104   23234036.4614
        46.4004         32.4004
 -22970516.62448 -17855494.88547  20489714.5914   20489721.6334   20489714.2964
        53.7004         47.7004
 -22986634.57849 -17881247.20048  20203653.5454   20203660.2884   20203652.8124
        54.4004         50.5004
 -13477960.73247  -9978885.95446  22048388.8924   22048396.1774   22048386.8794
        45.7004         36.9004
 -20632114.64949 -16051839.19348  20935402.9934   20935407.9974   20935402.3134
        54.1004         48.1004
 06 12 27  0 35  0.0000000  0  9G29G18G22G30G16G 6G 7G26G21
 -10549016.79547  -8173651.04545  22639075.0384   22639081.0244   22639075.2444
        47.5004         34.5004
 -18795102.49048 -14062454.56247  21248071.8954   21248077.4594   21248071.2464
        53.7004         46.3004
  -8205074.28147  -4725904.66345  23578405.4654   23578411.0614   23578405.1804
        45.4004         30.3004
    179107.13047    708602.48043  24745508.4974   24745516.0334   24745510.2904
        43.3004         23.4004
  -7824763.26147  -6049298.22545  23228827.2084   23228834.4224   23228827.2384
        45.7004         32.1004
 -22931225.60649 -17824878.51547  20497191.4604   20497198.6584   20497191.4804
        54.1004         47.4004
 -22988165.09249 -17882439.80848  20203362.2504   20203369.0764   20203361.4444
        54.4004         50.8004
 -13505212.73347 -10000121.23146  22043202.5704   22043212.0074   22043202.3294
        47.8004         36.9004
 -20658318.18949 -16072257.52548  20930416.6184   20930421.7644   20930415.9554
        54.1004         48.1004
 06 12 27  0 35 30.0000000  0  9G29G18G22G30G16G 6G 7G26G21
 -10538500.92448  -8165456.86745  22641076.1614   22641083.0674   22641077.4084
        48.5004         35.6004
 -18850931.74948 -14105957.85747  21237447.9714   21237453.6244   21237447.4114
        53.4004         46.7004
  -8302204.84747  -4801590.76245  23559921.9924   23559927.0774   23559921.4464
        45.7004         30.3004
    283056.17847    789601.71643  24765289.5744   24765297.6594   24765288.8574
        44.0004         23.4004
  -7851606.63547  -6070215.14245  23223718.9414   23223725.2804   23223718.3544
        44.4004         32.4004
 -22891477.15449 -17793905.69647  20504755.3344   20504762.3134   20504755.0934
        54.1004         47.4004
 -22989222.58449 -17883263.82648  20203160.9974   20203167.9484   20203160.2834
        54.1004         50.8004
 -13531831.66348 -10020863.24046  22038137.0254   22038146.4414   22038137.3954
        48.2004         37.6004
 -20684350.69848 -16092542.58348  20925462.7454   20925468.1614   20925462.1844
        53.7004         48.1004
 06 12 27  0 36  0.0000000  0  9G29G18G22G30G16G 6G 7G26G21
 -10527406.89247  -8156812.14545  22643187.6854   22643193.6274   22643187.6474
        47.8004         35.6004
 -18906352.93148 -14149143.17747  21226901.6654   21226907.1094   21226901.0724
        53.7004         46.7004
  -8399124.08847  -4877112.18645  23541478.8324   23541484.8904   23541478.6634
        46.1004         30.3004
    386909.47147    870526.33043  24785052.2434   24785060.7774   24785052.7654
        42.3004         23.1004
  -7877914.17947  -6090714.49745  23218712.6404   23218720.0494   23218711.7304
        46.1004         32.4004
 -22851271.07248 -17762576.29147  20512406.2994   20512413.2914   20512406.1574
        53.7004         47.4004
 -22989805.97649 -17883718.42348  20203049.9974   20203056.8714   20203049.3304
        54.8004         50.8004
 -13557815.38248 -10041110.25546  22033192.7284   22033202.0954   22033193.8474
        49.6004         38.0004
 -20710211.69449 -16112693.99448  20920541.5534   20920546.6314   20920540.9714
        54.1004         48.1004
 06 12 27  0 36 30.0000000  0  9G29G18G22G30G16G 6G 7G26G21
 -10515735.31747  -8147717.42245  22645408.5114   22645415.0774   22645408.9904
        47.5004         35.2004
 -18961366.26048 -14192010.68547  21216432.9664   21216438.8704   21216432.3204
        53.7004         47.0004
  -8495831.78247  -4952468.77645  23523075.9344   23523081.6624   23523075.7544
        46.4004         31.0004
    490663.27547    951373.42243  24804795.9854   24804803.7354   24804796.7674
        43.0004         23.1004
  -7903686.11247  -6110796.54645  23213808.3524   23213816.0354   23213808.4454
        45.4004         32.4004
 -22810608.69049 -17730891.32347  20520144.0864   20520151.3204   20520144.1604
        54.1004         47.4004
 -22989915.20849 -17883803.54148  20203029.2034   20203036.2254   20203028.4344
        54.4004         50.8004
 -13583163.15948 -10060861.74946  22028369.6424   22028379.0684   22028371.2664
        49.6004         38.3004
 -20735902.22649 -16132712.57648  20915652.7944   20915657.9734   20915652.3454
        54.1004         48.1004
 06 12 27  0 37  0.0000000  0  9G29G18G22G30G16G 6G 7G26G21
 -10503484.44248  -8138171.27246  22647740.0084   22647748.7024   22647741.1354
        48.2004         36.3004
 -19015969.20348 -14234558.41147  21206042.3814   21206048.0314   21206041.7534
        53.4004         47.0004
  -8592324.12947  -5027657.57445  23504713.9604   23504719.3674   23504713.5854
        46.4004         31.4004
    594317.18047   1032142.66243  24824520.7224   24824528.3474   24824521.2524
        43.0004         23.1004
  -7928919.92147  -6130459.21745  23209006.4764   23209013.0884   23209005.8904
        45.0004         32.4004
 -22769488.25849 -17698849.43247  20527969.0424   20527976.2094   20527969.0134
        54.1004         47.4004
 -22989547.41149 -17883516.94848  20203099.1624   20203106.2094   20203098.4964
        54.1004         50.5004
 -13607871.25948 -10080114.81346  22023668.1484   22023675.1124   22023668.0624
        49.2004         38.3004
 -20761419.80549 -16152596.39048  20910796.9914   20910801.9214   20910796.4574
        54.1004         48.4004
 06 12 27  0 37 30.0000000  0  9G29G18G22G30G16G 6G 7G26G21
 -10490655.80547  -8128174.91846  22650181.6214   22650188.3054   22650182.1954
        47.1004         36.3004
 -19070162.61848 -14276787.02947  21195729.7034   21195735.2854   21195729.1024
        53.4004         47.0004
  -8688601.10147  -5102678.55945  23486393.0624   23486398.9864   23486392.5794
        46.8004         31.7004
    697867.61347   1112831.27643  24844225.7014   24844234.2664   24844226.3104
        42.3004         23.1004
  -7953617.02347  -6149703.72145  23204306.7644   23204314.0234   23204306.4334
        45.4004         32.4004
 -22727911.72948 -17666452.14547  20535880.8134   20535887.9544   20535880.8364
        53.7004         47.7004
 -22988703.24349 -17882859.16048  20203259.7954   20203266.8844   20203259.0654
        54.4004         50.5004
 -13631939.52248 -10098869.26446  22019088.1054   22019094.7084   22019087.1134
        48.9004         37.6004
 -20786765.88749 -16172346.57748  20905973.7954   20905978.6854   20905973.4264
        54.1004         48.4004
 06 12 27  0 38  0.0000000  0  9G29G18G22G30G16G 6G 7G26G21
 -10477248.47747  -8117727.61345  22652732.8954   22652739.0524   22652732.2304
        46.4004         35.6004
 -19123944.77548 -14318695.18147  21185495.3054   21185500.8184   21185494.6374
        53.4004         47.0004
  -8784660.10947  -5177529.70845  23468113.6714   23468119.4294   23468113.1534
        46.8004         32.1004
    801312.24547   1193437.45443  24863910.4624   24863919.5564   24863910.5934
        42.3004         23.1004
  -7977775.89547  -6168528.80745  23199709.4614   23199715.1964   23199708.7564
        45.0004         32.1004
 -22685878.58449 -17633699.04947  20543879.5434   20543886.4884   20543879.3584
        54.1004         47.7004
 -22987380.97549 -17881828.82048  20203511.3994   20203518.2934   20203510.7714
        54.1004         50.5004
 -13655365.24748 -10117123.08346  22014630.0894   22014636.7084   22014629.8894
        49.2004         37.3004
 -20811939.41249 -16191962.30048  20901183.4504   20901188.5494   20901183.0724
        54.1004         48.4004
 06 12 27  0 38 30.0000000  0  9G29G18G22G30G16G 6G 7G26G21
 -10463262.05847  -8106829.08145  22655394.2124   22655403.2104   22655393.2484
        46.4004         35.9004
 -19177314.53648 -14360281.98447  21175339.3444   21175344.8354   21175338.7784
        53.4004         47.0004
  -8880498.93147  -5252209.27745  23449876.0594   23449882.2044   23449875.7594
        46.8004         32.8004
    904649.40646   1273959.87443  24883574.8654   24883583.5364   24883575.2394
        41.9004         23.1004
  -8001395.34547  -6186933.58045  23195214.8344   23195221.6374   23195214.5374
        45.7004         32.1004
 -22643388.55249 -17600589.93647  20551965.1364   20551972.0724   20551965.1214
        54.1004         47.7004
 -22985579.15849 -17880424.80648  20203854.2934   20203861.1624   20203853.6134
        54.1004         50.5004
 -13678146.50148 -10134874.69646  22010294.7404   22010302.1484   22010293.4814
        48.5004         37.3004
 -20836939.55249 -16211442.91748  20896426.0774   20896431.1824   20896425.4864
        54.1004         48.4004
 06 12 27  0 39  0.0000000  0  9G29G18G22G30G16G 6G 7G26G21
 -10448698.06647  -8095480.51945  22658165.0864   22658173.0154   22658164.0794
        44.7004         35.6004
 -19230272.98748 -14401548.29047  21165261.6884   21165267.4534   21165261.0454
        53.4004         47.0004
  -8976117.99147  -5326717.61745  23431680.2754   23431685.5814   23431679.6164
        46.8004         32.8004
   1007874.84646   1354395.25043  24903217.9474   24903226.5124   24903218.1814
        41.6004         23.4004
  -8024476.81347  -6204919.11145  23190822.4614   23190829.4014   23190821.5584
        46.4004         32.1004
 -22600443.41749 -17567126.20247  20560137.3634   20560144.4174   20560137.1934
        54.1004         47.7004
 -22983298.52449 -17878647.68748  20204288.2334   20204295.2894   20204287.5634
        54.4004         50.5004
 -13700282.88848 -10152123.79346  22006082.0784   22006089.6714   22006082.4464
        49.6004         37.3004
 -20861768.07848 -16230789.81448  20891701.3394   20891706.3554   20891700.6674
        53.7004         48.4004
 06 12 27  0 39 30.0000000  0  9G29G18G22G30G16G 6G 7G26G21
 -10433550.90147  -8083677.51545  22661047.2464   22661055.2624   22661046.7044
        46.4004         35.2004
 -19282813.62448 -14442489.03147  21155263.4914   21155269.0504   21155263.0864
        53.4004         47.0004
  -9071509.79247  -5401048.88045  23413527.7864   23413533.5914   23413527.3324
        46.8004         33.1004
   1110992.27246   1434746.43843  24922840.6614   24922848.6674   24922839.9574
        41.9004         23.4004
  -8047013.79447  -6222480.40645  23186533.8994   23186540.8834   23186533.5374
        46.1004         32.4004
 -22557037.93549 -17533303.75747  20568397.1564   20568404.1684   20568396.9254
        54.1004         47.7004
 -22980532.35649 -17876492.23048  20204814.6604   20204821.5674   20204813.9684
        54.4004         50.5004
 -13721767.18348 -10168864.77246  22001994.0034   22002002.2634   22001994.0864
        49.6004         38.3004
 -20886418.47049 -16249997.90648  20887010.5174   20887015.7354   20887009.9944
        54.1004         48.4004
 06 12 27  0 40  0.0000000  0  9G29G18G22G30G16G 6G 7G26G21
 -10417827.72047  -8071425.69245  22664039.1594   22664045.4334   22664039.2324
        46.4004         35.2004
 -19334942.75548 -14483109.11947  21145343.6464   21145349.2164   21145342.9844
        53.4004         47.0004
  -9166679.53147  -5475207.10045  23395417.6534   23395422.8234   23395417.2004
        46.8004         33.1004
   1213991.60446   1515005.62343  24942440.9994   24942449.1234   24942441.6474
        41.2004         23.1004
  -8069013.15447  -6239622.78145  23182347.5784   23182354.4014   23182347.0554
        46.1004         32.4004
 -22513179.48448 -17499128.35247  20576743.1284   20576750.0764   20576743.0274
        53.7004         47.7004
 -22977287.06749 -17873963.43248  20205432.2104   20205438.9854   20205431.5114
        54.4004         50.5004
 -13742604.83348 -10185101.91646  21998028.7164   21998037.1804   21998029.6314
        50.3004         38.7004
 -20910897.79149 -16269072.69748  20882352.2644   20882357.5454   20882351.6094
        54.1004         48.4004
 06 12 27  0 40 30.0000000  0  9G29G18G22G30G16G 6G 7G26G21
 -10401527.12447  -8058723.91045  22667141.3474   22667148.1764   22667141.6944
        46.8004         35.6004
 -19386658.16748 -14523406.82847  21135502.4834   21135507.9734   21135501.8474
        53.4004         47.0004
  -9261624.15247  -5549189.90845  23377350.2144   23377356.3154   23377350.2074
        46.4004         33.5004
   1316872.42046   1595172.43743  24962018.3244   24962027.0194   24962017.9154
        40.2004         23.4004
  -8090472.85247  -6256344.61645  23178263.9414   23178271.5584   23178264.0324
        45.7004         32.4004
 -22468866.93348 -17464599.09947  20585175.4914   20585182.7674   20585175.5604
        53.7004         47.7004
 -22973560.13349 -17871059.33548  20206141.4634   20206148.2604   20206140.7004
        54.1004         50.5004
 -13762792.75448 -10200832.74646  21994187.4804   21994194.2514   21994189.3504
        51.0004         39.0004
 -20935203.97348 -16288012.57548  20877726.9264   20877732.0164   20877726.4114
        53.7004         48.4004
 06 12 27  0 41  0.0000000  0  9G29G18G22G30G16G 6G 7G26G21
 -10384650.53947  -8045573.30645  22670352.8784   22670358.5904   22670352.0224
        46.8004         35.2004
 -19437960.64448 -14563382.75947  21125739.9294   21125745.3214   21125739.1054
        53.4004         47.0004
  -9356343.18747  -5622996.91445  23359325.7444   23359331.8184   23359326.1154
        46.8004         33.8004
   1419630.83546   1675243.87043  24981572.6434   24981582.3934   24981573.2874
        40.5004         23.4004
  -8111394.12747  -6272646.90445  23174282.8164   23174288.9094   23174283.7174
        47.1004         32.8004
 -22424102.00549 -17429717.34747  20593693.9834   20593701.1034   20593693.8924
        54.1004         47.7004
 -22969352.08849 -17867780.33848  20206942.2094   20206948.9864   20206941.5054
        54.4004         50.5004
 -13782330.89448 -10216057.21646  21990469.8324   21990477.8224   21990468.4454
        48.9004         38.7004
 -20959338.24449 -16306818.49748  20873134.2754   20873139.3874   20873133.8304
        54.1004         48.4004
 06 12 27  0 41 30.0000000  0  9G29G18G22G30G16G 6G 7G26G21
 -10367196.45847  -8031972.70945  22673674.1124   22673681.4294   22673674.0824
        47.1004         35.6004
 -19488847.97048 -14603035.20547  21116056.3824   21116061.7184   21116055.7794
        53.4004         47.0004
  -9450833.50347  -5696625.68545  23341344.9104   23341351.2494   23341345.3734
        46.8004         33.8004
   1522266.42146   1755219.61143  25001103.6944   25001112.4044   25001103.8364
        40.2004         23.4004
  -8131774.36647  -6288527.62445  23170404.7414   23170410.6954   23170405.3924
        46.4004         32.8004
 -22378883.21448 -17394481.93447  20602298.8494   20602305.7524   20602298.7154
        53.7004         47.4004
 -22964660.33249 -17864124.42748  20207835.0044   20207841.6644   20207834.1974
        54.1004         50.5004
 -13801215.63148 -10230772.62546  21986875.8084   21986883.1744   21986875.7934
        48.9004         39.0004
 -20983298.45249 -16325488.78948  20868574.7864   20868580.1224   20868574.2874
        54.1004         48.4004
 06 12 27  0 42  0.0000000  0  9G29G18G22G30G16G 6G 7G26G21
 -10349164.73047  -8017922.01345  22677105.3254   22677112.7004   22677104.3674
        46.8004         35.9004
 -19539319.16748 -14642363.39647  21106452.0054   21106457.4384   21106451.3884
        53.4004         47.0004
  -9545093.35647  -5770074.85945  23323408.0004   23323413.8784   23323408.0414
        46.8004         34.2004
   1624777.12946   1835098.04743  25020611.0424   25020618.8714   25020611.5114
        39.5004         23.4004
  -8151612.92747  -6303986.23145  23166629.7474   23166636.3904   23166629.4764
        46.1004         32.8004
 -22333210.77148 -17358893.02347  20610990.0674   20610997.2234   20610989.7594
        53.7004         47.4004
 -22959483.84249 -17860090.80248  20208820.0554   20208826.7184   20208819.3164
        54.4004         50.5004
 -13819445.49648 -10244977.67046  21983406.7164   21983410.8984   21983405.6054
        48.2004         38.0004
 -21007084.30349 -16344023.21248  20864048.4954   20864053.8464   20864047.8104
        54.1004         48.4004
 06 12 27  0 42 30.0000000  0  9G29G18G22G30G16G 6G 7G26G21
 -10330555.13447  -8003421.02046  22680646.7254   22680653.2244   22680647.1054
        47.5004         36.3004
 -19589373.10448 -14681366.44847  21096927.0134   21096932.6794   21096926.3224
        53.4004         47.0004
  -9639120.64547  -5843342.79745  23305515.0804   23305520.7184   23305515.0484
        46.8004         34.2004
   1727160.42846   1914877.18343  25040093.7624   25040101.8504   25040093.6444
        39.8004         23.4004
  -8170909.32747  -6319022.39645  23162957.7134   23162962.8674   23162958.7874
        46.4004         33.1004
 -22287084.65449 -17322950.60447  20619767.5884   20619774.6264   20619767.3524
        54.1004         47.4004
 -22953821.27749 -17855678.42048  20209897.5734   20209904.4324   20209896.8004
        54.4004         50.5004
 -13837018.49747 -10258670.88146  21980062.0114   21980068.8364   21980060.1314
        47.1004         36.9004
 -21030694.89449 -16362421.07248  20859555.5374   20859560.8474   20859555.1804
        54.4004         48.4004
 06 12 27  0 43  0.0000000  0  9G29G18G22G30G16G 6G 7G26G21
 -10311369.23247  -7988470.95345  22684297.8514   22684304.8224   22684297.8574
        47.1004         35.9004
 -19639010.73648 -14720045.10247  21087481.2594   21087486.8604   21087480.7314
        53.7004         47.0004
  -9732915.17947  -5916429.34145  23287666.5274   23287672.9624   23287665.9144
        47.1004         34.2004
   1829412.99646   1994554.44943  25059551.8324   25059561.4874   25059552.7534
        39.1004         23.7004
  -8189665.07847  -6333637.25945  23159388.7354   23159395.1254   23159388.8594
        46.1004         33.1004
 -22240506.75948 -17286656.14947  20628631.0724   20628638.0654   20628630.9264
        53.7004         47.4004
 -22947673.33749 -17850887.81848  20211067.4684   20211074.4374   20211066.7704
        54.1004         50.2004
 -13853934.51948 -10271852.20046  21976842.6494   21976851.2934   21976842.6084
        48.9004         37.6004
 -21054131.02749 -16380682.99548  20855095.7784   20855101.0564   20855095.2584
        54.4004         48.4004
 06 12 27  0 43 30.0000000  0  9G29G18G22G30G16G 6G 7G26G21
 -10291606.58047  -7973071.50945  22688058.3504   22688065.0514   22688057.1054
        46.1004         34.9004
 -19688230.69248 -14758398.29347  21078114.9944   21078120.6244   21078114.4054
        53.4004         46.7004
  -9826474.50347  -5989332.60445  23269862.6924   23269868.6434   23269862.8894
        47.1004         33.8004
   1931533.00646   2074128.44443  25078984.7534   25078992.5674   25078985.7194
        39.8004         23.7004
  -8207878.57747  -6347829.59945  23155922.8864   23155928.6484   23155923.3784
        46.4004         32.8004
 -22193476.56448 -17250009.25047  20637580.5924   20637587.1314   20637580.4204
        53.7004         46.7004
 -22941038.39149 -17845717.72648  20212330.0364   20212337.0434   20212329.2564
        54.1004         49.8004
 -13870191.30648 -10284519.82946  21973749.1434   21973754.1954   21973749.6504
        48.9004         37.3004
 -21077391.72449 -16398808.20748  20850669.3944   20850674.6034   20850668.8524
        54.4004         48.1004
 06 12 27  0 44  0.0000000  0  9G29G18G22G30G16G 6G 7G26G21
 -10271268.11747  -7957223.35145  22691928.3674   22691933.7384   22691928.3554
        46.4004         33.5004
 -19737032.99348 -14796426.03447  21068828.2004   21068833.7534   21068827.2844
        53.0004         46.0004
  -9919797.89947  -6062052.01945  23252103.7604   23252109.6834   23252103.0644
        46.4004         33.1004
   2033517.57946   2153596.87343  25098391.8074   25098400.0464   25098391.6454
        38.8004         23.4004
  -8225550.28547  -6361599.76545  23152560.1204   23152566.0924   23152559.7364
        46.8004         32.1004
 -22145995.37648 -17213010.92947  20646615.9224   20646622.7704   20646615.6254
        53.4004         46.0004
 -22933916.54848 -17840168.24348  20213685.3004   20213692.1954   20213684.6174
        53.7004         49.5004
 -13885788.33148 -10296673.32646  21970781.2944   21970788.1154   21970782.9034
        49.6004         36.9004
 -21100477.60149 -16416797.19847  20846276.3154   20846281.4904   20846275.8444
        54.1004         47.4004
 06 12 27  0 44 30.0000000  0  9G29G18G22G30G16G 6G 7G26G21
 -10250354.15847  -7940926.74345  22695908.2534   22695914.9174   22695908.3404
        46.4004         33.5004
 -19785417.19248 -14834127.97847  21059620.9494   21059626.7154   21059620.1484
        53.0004         46.0004
 -10012883.70347  -6134586.30045  23234390.0144   23234396.0624   23234388.9274
        47.1004         33.1004
   2135364.68246   2232958.22143  25117772.6944   25117780.9324   25117773.7674
        39.8004         23.7004
  -8242680.20447  -6374947.76145  23149300.5404   23149306.9384   23149300.1234
        46.8004         32.1004
 -22098063.63848 -17175661.52747  20655737.0384   20655743.8924   20655736.6014
        53.0004         46.0004
 -22926307.01749 -17834238.74648  20215133.3544   20215140.2484   20215132.8554
        54.1004         49.5004
 -13900724.11248 -10308311.58546  21967939.6194   21967947.9444   21967939.5824
        48.9004         38.0004
 -21123388.32649 -16434649.71347  20841916.5784   20841921.6704   20841915.9024
        54.4004         47.4004
 06 12 27  0 45  0.0000000  0  9G29G18G22G30G16G 6G 7G26G21
 -10228865.85347  -7924182.60545  22699997.2724   22700004.2824   22699996.9694
        46.1004         33.8004
 -19833383.43348 -14871504.24447  21050493.2514   21050498.8354   21050492.4574
        53.0004         46.3004
 -10105731.06647  -6206934.78445  23216721.7304   23216726.8284   23216720.8994
        47.5004         33.5004
   2237071.07247   2312209.90444  25137126.8664   25137134.9224   25137127.4094
        42.3004         24.4004
  -8259268.57247  -6387873.76145  23146143.9514   23146149.3104   23146143.0994
        47.1004         32.4004
 -22049682.67548 -17137962.07847  20664943.6504   20664950.6884   20664943.6174
        53.0004         46.3004
 -22918209.88149 -17827929.29148  20216674.2124   20216681.1754   20216673.5784
        54.4004         49.8004
 -13914998.11148 -10319434.19046  21965223.2344   21965231.4514   21965224.0624
        48.9004         38.3004
 -21146124.00849 -16452365.82647  20837590.1494   20837595.2564   20837589.6574
        54.4004         47.7004
 06 12 27  0 45 30.0000000  0  9G29G18G22G30G16G 6G 7G26G21
 -10206803.47147  -7906991.15745  22704195.6894   22704200.4744   22704197.1814
        47.5004         34.2004
 -19880931.29848 -14908554.50347  21041445.1304   21041450.8744   21041444.4514
        53.0004         46.7004
 -10198338.55047  -6279096.35745  23199099.0684   23199104.6814   23199098.5584
        47.1004         33.8004
   2338634.03146   2391349.83144  25156453.8174   25156462.0044   25156454.5794
        41.9004         25.1004
  -8275315.28947  -6400377.70645  23143090.4134   23143096.7144   23143091.0314
        47.5004         32.8004
 -22000852.95348 -17099912.95347  20674235.6074   20674242.6704   20674235.7744
        53.0004         46.7004
 -22909624.35749 -17821239.27848  20218308.0024   20218314.9504   20218307.2374
        54.4004         50.2004
 -13928609.39348 -10330040.34746  21962633.3274   21962641.8504   21962634.3954
        49.6004         39.4004
 -21168684.61349 -16469945.52348  20833296.9564   20833302.1524   20833296.5994
        54.1004         48.1004
 06 12 27  0 46  0.0000000  0  9G29G18G22G30G16G 6G 7G26G21
 -10184166.39747  -7889351.82645  22708503.7784   22708509.8874   22708503.6704
        46.8004         34.2004
 -19928059.45348 -14945277.70947  21032476.8954   21032482.7614   21032476.2504
        53.7004         47.0004
 -10290703.55847  -6351068.98345  23181522.4684   23181527.8784   23181522.1164
        47.5004         34.2004
   2440052.79846   2470377.41944  25175753.2494   25175761.2524   25175753.8684
        41.6004         25.5004
  -8290819.31547  -6412458.78645  23140140.2334   23140146.2304   23140140.7444
        46.1004         33.1004
 -21951573.98648 -17061513.75947  20683613.0874   20683619.9924   20683613.0434
        53.0004         47.0004
 -22900548.78449 -17814167.40648  20220035.0184   20220041.8974   20220034.3124
        54.1004         50.5004
 -13941555.17647 -10340127.95746  21960169.8744   21960178.5004   21960168.7524
        47.8004         39.7004
 -21191068.67049 -16487387.63548  20829037.4014   20829042.4134   20829036.7884
        54.1004         48.4004
 06 12 27  0 46 30.0000000  0  9G29G18G22G30G16G 6G 7G26G21
 -10160954.28547  -7871264.49745  22712920.6134   22712927.3974   22712920.1234
        46.4004         33.8004
 -19974766.42648 -14981672.72747  21023588.8634   21023594.6824   21023588.1834
        53.4004         47.4004
 -10382823.70947  -6422850.83945  23163992.4434   23163997.8124   23163991.1834
        47.5004         34.2004
   2541325.47746   2549291.17444  25195024.8514   25195032.9984   25195025.3374
        41.6004         25.5004
  -8305779.49247  -6424116.04945  23137293.4094   23137298.8444   23137293.0454
        47.5004         33.5004
 -21901845.45048 -17022764.25747  20693076.1454   20693083.1414   20693076.1714
        53.0004         47.0004
 -22890981.65849 -17806712.51248  20221855.6304   20221862.7174   20221855.1314
        54.1004         50.5004
 -13953833.57948 -10349695.53446  21957833.1004   21957840.4964   21957833.2484
        48.5004         39.4004
 -21213274.77849 -16504691.09748  20824811.6824   20824816.9784   20824811.0934
        54.1004         48.4004
 06 12 27  0 47  0.0000000  0  9G29G18G22G30G16G 6G 7G26G21
 -10137168.69347  -7852730.26045  22717447.1624   22717453.3214   22717448.0684
        47.8004         34.5004
 -20021052.63948 -15017739.88247  21014780.8234   21014786.4174   21014780.3104
        53.7004         47.4004
 -10474698.68847  -6494441.65445  23146509.1004   23146514.2244   23146508.9354
        47.5004         34.5004
   2642448.67946   2628088.44744  25214267.9404   25214276.1694   25214268.7754
        41.9004         25.5004
  -8320197.12547  -6435350.56645  23134549.9424   23134555.8994   23134548.8654
        47.1004         33.5004
 -21851669.21848 -16983665.89547  20702624.4054   20702631.3994   20702624.2014
        53.4004         47.0004
 -22880923.69249 -17798875.13548  20223769.5894   20223776.4374   20223768.9764
        54.4004         50.5004
 -13965444.73248 -10358743.14946  21955623.6744   21955631.9004   21955623.4184
        48.9004         39.7004
 -21235304.02349 -16521856.73548  20820619.6534   20820624.7964   20820619.2154
        54.1004         48.4004
 06 12 27  0 47 30.0000000  0  9G29G18G22G30G16G 6G 7G26G21
 -10112808.94647  -7833748.65245  22722082.7714   22722089.6174   22722082.6504
        46.8004         34.5004
 -20066916.75948 -15053478.12947  21006053.2124   21006058.7934   21006052.6624
        53.7004         47.4004
 -10566325.85747  -6565839.37345  23129072.8634   23129078.3744   23129071.5674
        47.5004         34.5004
   2743421.24047   2706768.34444  25233482.3984   25233490.7374   25233482.8334
        43.0004         25.5004
  -8334070.65947  -6446161.12845  23131909.8924   23131915.3214   23131909.6724
        47.8004         33.5004
 -21801044.66748 -16944218.19547  20712257.9644   20712264.9314   20712257.8524
        53.4004         47.0004
 -22870372.94749 -17790653.78048  20225777.3584   20225784.3514   20225776.5964
        54.4004         50.8004
 -13976386.29248 -10367269.04846  21953541.5164   21953549.9504   21953541.9294
        49.2004         40.1004
 -21257154.57149 -16538883.12948  20816461.5864   20816466.8804   20816460.9744
        54.4004         48.4004
 06 12 27  0 48  0.0000000  0  9G29G18G22G30G16G 6G 7G26G21
 -10087877.83748  -7814321.83245  22726827.1514   22726832.6214   22726828.2744
        48.2004         35.2004
 -20112360.60148 -15088888.88847  20997405.5294   20997411.2014   20997405.0594
        53.7004         47.7004
 -10657706.13347  -6637044.72045  23111683.6844   23111689.2784   23111682.3754
        47.5004         34.5004
   2844238.64346   2785327.35044  25252667.2204   25252676.4224   25252667.8124
        41.9004         25.1004
  -8347402.61947  -6456549.66845  23129373.0654   23129377.8474   23129373.0084
        46.8004         33.5004
 -21749974.60348 -16904423.34547  20721976.2204   20721983.0644   20721976.2544
        53.4004         47.0004
 -22859331.21049 -17782049.83948  20227878.5304   20227885.5324   20227877.9324
        54.4004         50.8004
 -13986659.31848 -10375273.97846  21951586.9284   21951594.3754   21951587.6124
        49.9004         40.1004
 -21278828.42748 -16555771.84648  20812337.2294   20812342.4674   20812336.7294
        53.7004         48.4004
 06 12 27  0 48 30.0000000  0  9G29G18G22G30G16G 6G 7G26G21
 -10062375.04947  -7794449.48345  22731680.5484   22731686.6044   22731679.1564
        47.5004         35.6004
 -20157383.29648 -15123971.47947  20988838.0244   20988843.6644   20988837.3804
        53.7004         47.7004
 -10748836.89847  -6708055.64945  23094342.0774   23094348.0074   23094341.5704
        47.1004         34.9004
   2944899.67747   2863764.52644  25271822.3294   25271830.2464   25271821.7624
        42.6004         24.4004
  -8360192.26347  -6466515.61345  23126939.2724   23126945.0924   23126938.6644
        47.5004         33.5004
 -21698458.89848 -16864281.23747  20731779.3354   20731786.4404   20731779.1684
        53.4004         47.0004
 -22847797.02649 -17773062.16948  20230073.4434   20230080.3804   20230072.9524
        54.4004         50.8004
 -13996261.95848 -10382756.54446  21949759.5694   21949767.0734   21949760.1074
        49.2004         39.7004
 -21300324.66049 -16572522.15348  20808246.6294   20808252.0924   20808246.1514
        54.1004         48.4004
 06 12 27  0 49  0.0000000  0  9G29G18G22G30G16G 6G 7G26G21
 -10036300.66347  -7774131.79645  22736641.9724   22736650.0694   22736640.9314
        47.1004         35.6004
 -20201983.78248 -15158725.08147  20980350.7864   20980356.4744   20980350.2864
        53.7004         47.7004
 -10839716.54847  -6778870.92145  23077048.1764   23077052.9764   23077047.8624
        47.5004         34.9004
   3045402.48046   2942078.41843  25290947.4144   25290955.9614   25290948.3714
        41.9004         23.4004
  -8372438.90847  -6476058.47245  23124608.8264   23124613.9924   23124608.2874
        47.5004         33.5004
 -21646497.78548 -16823792.06547  20741667.2644   20741674.3334   20741666.9534
        53.4004         47.0004
 -22835769.45449 -17763690.04148  20232362.2404   20232369.2254   20232361.5684
        54.4004         50.8004
 -14005192.90648 -10389715.72746  21948060.1424   21948068.3574   21948060.7344
        49.6004         40.1004
 -21321642.31948 -16589133.31248  20804189.9844   20804195.2254   20804189.5094
        53.7004         48.4004
 06 12 27  0 49 30.0000000  0  9G29G18G22G30G16G 6G 7G26G21
 -10009654.99747  -7753368.93245  22741712.1864   22741718.6554   22741709.7924
        45.4004         34.5004
 -20246160.99348 -15193148.85547  20971944.1454   20971949.7714   20971943.4764
        53.7004         47.7004
 -10930343.05147  -6849488.92845  23059802.4684   23059807.6434   23059801.9714
        47.8004         34.9004
   3145744.76146   3020267.21743  25310041.9034   25310049.8804   25310042.7524
        41.9004         22.7004
  -8384142.01547  -6485177.76745  23122381.7704   23122386.6604   23122381.6384
        46.1004         33.1004
 -21594091.47448 -16782955.98947  20751639.9004   20751646.8044   20751639.8794
        53.0004         47.0004
 -22823247.46549 -17753932.65248  20234745.0794   20234752.0554   20234744.3484
        54.4004         50.8004
 -14013450.58148 -10396150.23946  21946488.9154   21946496.0234   21946488.2924
        48.9004         39.7004
 -21342780.53448 -16605604.64448  20800167.5184   20800172.6664   20800166.9844
        53.7004         48.4004
 06 12 27  0 50  0.0000000  0  9G29G18G22G30G16G 6G 7G26G21
  -9982438.50647  -7732161.23645  22746890.8064   22746896.5764   22746891.3454
        47.1004         33.5004
 -20289914.84148 -15227242.74147  20963618.0634   20963623.7204   20963617.6404
        53.7004         47.7004
 -11020715.07547  -6919908.63645  23042605.2294   23042610.9014   23042604.8574
        47.1004         34.9004
   3245924.63146   3098329.46943  25329105.3614   25329114.0594   25329105.3854
        41.9004         22.0004
  -8395301.71947  -6493873.63945  23120258.0214   23120263.7754   23120257.1594
        47.5004         33.5004
 -21541240.51348 -16741773.42447  20761697.1004   20761704.0034   20761697.0164
        53.0004         47.0004
 -22810230.51749 -17743789.57548  20237222.1484   20237229.0544   20237221.5034
        54.4004         50.5004
 -14021034.00648 -10402059.39646  21945045.4174   21945052.8164   21945045.4514
        49.2004         39.0004
 -21363739.02949 -16621935.93248  20796179.2484   20796184.5134   20796178.9354
        54.1004         48.4004
 06 12 27  0 50 30.0000000  0  9G29G18G22G30G16G 6G 7G26G21
  -9954653.19147  -7710510.32545  22752178.4884   22752185.5774   22752178.9644
        47.8004         34.9004
 -20333246.48848 -15261007.63747  20955372.3414   20955378.1474   20955371.7584
        53.7004         47.7004
 -11110832.29747  -6990129.82045  23025456.4964   23025461.9644   23025456.4284
        47.5004         35.2004
   3345938.72346   3176262.51943  25348137.3264   25348145.1284   25348138.6694
        40.9004         21.0004
  -8405919.58447  -6502147.30345  23118237.7014   23118241.4614   23118237.1874
        47.1004         33.5004
 -21487947.20548 -16700246.17447  20771838.4724   20771845.4594   20771838.3664
        53.0004         47.0004
 -22796719.64349 -17733261.61848  20239793.1994   20239800.0204   20239792.6734
        54.8004         50.8004
 -14027943.65748 -10407443.51746  21943730.6814   21943737.7624   21943731.2814
        48.5004         39.0004
 -21384518.82648 -16638127.97748  20792224.9864   20792230.1664   20792224.6724
        53.7004         48.4004
 06 12 27  0 51  0.0000000  0  9G29G18G22G30G16G 6G 7G26G21
  -9926299.45147  -7688416.55245  22757574.0124   22757577.7624   22757574.2094
        47.5004         34.5004
 -20376154.96548 -15294442.78847  20947207.1054   20947212.7234   20947206.4614
        53.4004         47.7004
 -11200693.07147  -7060151.14545  23008356.5294   23008361.8714   23008355.1874
        47.8004         35.2004
   3445784.41746   3254064.34943  25367137.1814   25367146.0304   25367135.2884
        40.9004         20.3004
  -8415995.47647  -6509998.63545  23116320.1484   23116325.4314   23116319.3254
        46.8004         33.1004
 -21434211.92848 -16658374.53647  20782063.9534   20782070.9504   20782063.8674
        52.7004         47.0004
 -22782714.11849 -17722348.22248  20242458.3994   20242465.1484   20242457.7984
        54.4004         50.5004
 -14034178.35448 -10412301.72046  21942544.2874   21942552.3354   21942543.9534
        49.2004         39.4004
 -21405119.25048 -16654180.25348  20788304.8704   20788310.1224   20788304.4664
        53.7004         48.8004
 06 12 27  0 51 30.0000000  0  9G29G18G22G30G16G 6G 7G26G21
  -9897377.45548  -7665879.90845  22763077.9244   22763083.2164   22763078.9984
        48.5004         34.5004
 -20418639.41648 -15327547.53447  20939122.5614   20939128.1974   20939122.0474
        53.4004         47.7004
 -11290295.70947  -7129971.34445  22991305.6284   22991310.8054   22991305.2114
        47.8004         35.6004
   3545460.33246   3331733.92143  25386105.0734   25386113.2984   25386104.0864
        39.5004         18.5004
  -8425528.71947  -6517427.14245  23114506.0644   23114510.7844   23114505.2514
        47.1004         33.1004
 -21380034.73348 -16616158.54947  20792373.5404   20792380.5474   20792373.1304
        52.7004         46.7004
 -22768212.63949 -17711048.36848  20245217.9454   20245224.6814   20245217.2384
        54.4004         50.5004
 -14039736.50648 -10416632.75846  21941486.4564   21941490.8684   21941486.7654
        48.9004         38.3004
 -21425539.29948 -16670091.97848  20784419.1004   20784424.1974   20784418.5864
        53.7004         48.8004
 06 12 27  0 52  0.0000000  0  9G29G18G22G30G16G 6G 7G26G21
  -9867888.51047  -7642901.51145  22768689.7094   22768697.3634   22768689.4344
        47.5004         35.9004
 -20460700.47948 -15360322.37347  20931118.5754   20931124.0904   20931117.8894
        53.4004         47.7004
 -11379639.37247  -7199589.73545  22974304.0754   22974309.7814   22974304.0704
        47.8004         35.6004
   3644963.63146   3409268.96043  25405039.7094   25405049.5734   25405039.8474
        39.5004         18.2004
  -8434520.26347  -6524433.53845  23112795.0114   23112799.5264   23112794.6054
        47.1004         33.1004
 -21325417.17348 -16573599.42347  20802766.8674   20802774.0084   20802766.6344
        52.7004         46.7004
 -22753215.78749 -17699362.50748  20248071.7814   20248078.5294   20248071.0224
        54.4004         50.5004
 -14044618.26248 -10420436.67346  21940557.5434   21940563.7924   21940557.7684
        49.6004         38.0004
 -21445779.27148 -16685863.37948  20780567.5604   20780572.6994   20780566.9434
        53.7004         48.8004
 06 12 27  0 52 30.0000000  0  9G29G18G22G30G16G 6G 7G26G21
  -9837835.72348  -7619483.76645  22774408.5144   22774414.1014   22774408.6354
        48.2004         35.6004
 -20502340.25648 -15392768.93348  20923194.7984   20923200.3124   20923194.3744
        53.4004         48.1004
 -11468724.73347  -7269006.85745  22957351.6914   22957356.2384   22957351.9164
        47.8004         35.9004
   3744289.54946   3486665.76342  25423940.7574   25423948.6644   25423938.8834
        39.1004         17.5004
  -8442972.62547  -6531019.76745  23111186.4154   23111193.0314   23111185.9494
        46.1004         33.1004
 -21270362.32348 -16530699.54747  20813243.4064   20813250.6954   20813243.3614
        52.7004         46.7004
 -22737725.28849 -17687291.98948  20251019.5224   20251026.1534   20251018.7914
        54.4004         50.5004
 -14048824.89848 -10423714.56046  21939757.1524   21939763.9684   21939756.4834
        48.9004         38.3004
 -21465841.43248 -16701496.22448  20776749.8824   20776754.9334   20776749.2364
        53.7004         48.8004
 06 12 27  0 53  0.0000000  0  9G29G18G22G30G16G 6G 7G26G21
  -9807215.26748  -7595623.60645  22780235.5754   22780241.6664   22780235.5214
        48.2004         34.9004
 -20543553.62248 -15424883.22548  20915352.1314   20915357.5384   20915351.5334
        53.4004         48.1004
 -11557545.90747  -7338218.11945  22940449.5674   22940455.1584   22940449.1684
        47.8004         35.9004
   3843440.57246   3563926.29742  25442808.6844   25442818.1684   25442808.4804
        38.1004         17.1004
  -8450881.66847  -6537182.66145  23109681.4274   23109685.6744   23109681.4104
        46.8004         33.1004
 -21214866.33848 -16487455.92647  20823803.9694   20823810.8594   20823803.7614
        52.7004         46.7004
 -22721736.15549 -17674832.91748  20254062.1184   20254068.9074   20254061.3254
        54.4004         50.5004
 -14052351.15148 -10426462.32146  21939085.6694   21939092.9484   21939086.3874
        48.9004         38.3004
 -21485720.28149 -16716986.22448  20772967.0474   20772972.0484   20772966.4254
        54.1004         48.8004
 06 12 27  0 53 30.0000000  0  9G29G18G22G30G16G 6G 7G26G21
  -9776030.91147  -7571324.11945  22786169.8344   22786177.2294   22786168.9534
        47.8004         35.9004
 -20584343.52348 -15456667.54648  20907590.0754   20907595.5364   20907589.3374
        53.7004         48.1004
 -11646104.67248  -7407224.90645  22923597.2564   22923602.6524   22923596.7544
        48.2004         35.9004
   3942411.95346   3641046.84442  25461642.1184   25461654.6524   25461639.6144
        38.4004         16.8004
  -8458250.36447  -6542924.49445  23108279.1394   23108285.5114   23108278.7424
        46.4004         33.1004
 -21158932.77648 -16443871.33847  20834447.7934   20834454.9264   20834447.6524
        52.7004         46.3004
 -22705251.03649 -17661987.36948  20257199.1514   20257205.8484   20257198.4734
        54.4004         50.5004
 -14055199.23048 -10428681.60146  21938544.1204   21938549.8274   21938546.2204
        50.6004         39.0004
 -21505418.38148 -16732335.38648  20769218.5604   20769223.4414   20769217.9404
        53.7004         48.4004
 06 12 27  0 54  0.0000000  0  9G29G18G22G30G16G 6G 7G26G21
  -9744281.38148  -7546584.22845  22792211.5324   22792217.6944   22792212.2304
        48.2004         35.9004
 -20624707.70548 -15488120.14648  20899909.0114   20899914.5804   20899908.5044
        53.4004         48.1004
 -11734397.42148  -7476024.40045  22906795.6904   22906800.9724   22906794.9464
        48.2004         35.9004
   4041203.03046   3718026.87842  25480441.7744   25480449.0014   25480442.8964
        38.4004         16.8004
  -8465076.63447  -6548243.67245  23106980.1414   23106986.2984   23106979.4114
        46.4004         33.1004
 -21102560.90248 -16399945.21247  20845175.0344   20845182.1274   20845174.9164
        52.7004         46.3004
 -22688267.42449 -17648753.39348  20260430.9824   20260437.7694   20260430.0864
        54.1004         50.5004
 -14057366.51248 -10430370.36046  21938132.1964   21938136.6254   21938133.3464
        51.0004         38.7004
 -21524933.53248 -16747541.99848  20765504.9334   20765510.1624   20765504.4104
        53.7004         48.4004
 06 12 27  0 54 30.0000000  0  9G29G18G22G30G16G 6G 7G26G21
  -9711969.64047  -7521406.18445  22798360.4024   22798365.1634   22798359.1144
        46.8004         35.2004
 -20664647.67248 -15519242.18748  20892308.6614   20892313.9784   20892308.0764
        53.4004         48.1004
 -11822424.76048  -7544617.09245  22890044.5694   22890049.6864   22890044.7624
        48.9004         35.9004
   4139809.63146   3794863.16642  25499205.9524   25499215.7864   25499207.1164
        36.4004         16.1004
  -8471363.12247  -6553142.22745  23105783.6744   23105789.3774   23105782.5804
        46.4004         33.1004
 -21045753.11848 -16355679.41547  20855985.1764   20855992.2824   20855985.0724
        52.7004         46.3004
 -22670787.06349 -17635132.33748  20263757.3674   20263764.1654   20263756.5534
        54.4004         50.5004
 -14058854.03948 -10431529.48146  21937849.0534   21937855.1784   21937847.6444
        49.2004         38.3004
 -21544267.34249 -16762607.29448  20761825.8634   20761831.0194   20761825.1484
        54.1004         48.8004
 06 12 27  0 55  0.0000000  0  9G29G18G22G30G16G 6G 7G26G21
  -9679094.03347  -7495788.85745  22804615.8214   22804622.3344   22804612.9054
        44.4004         33.5004
 -20704161.35148 -15550032.05148  20884789.4664   20884794.9384   20884788.8924
        53.7004         48.4004
 -11910183.34448  -7613000.35745  22873344.6544   22873349.3914   22873345.1234
        48.9004         35.9004
   4238231.62046   3871555.59242  25517935.0704   25517942.6494   25517937.1604
        37.7004         15.8004
  -8477107.67947  -6557618.50645  23104690.5064   23104696.6264   23104690.5264
        46.4004         33.1004
 -20988508.23648 -16311073.02047  20866878.5404   20866885.7284   20866878.4514
        52.7004         46.0004
 -22652807.51749 -17621122.30548  20267178.7474   20267185.5294   20267177.9354
        54.4004         50.2004
 -14059659.16348 -10432156.87946  21937695.4874   21937704.0434   21937696.6994
        49.9004         39.4004
 -21563416.56149 -16777528.75948  20758181.8604   20758187.1804   20758181.3804
        54.1004         48.8004
 06 12 27  0 55 30.0000000  0  9G29G18G22G30G16G 6G 7G26G21
  -9645656.73648  -7469733.83145  22810978.2634   22810985.4564   22810979.5674
        48.2004         34.2004
 -20743249.22548 -15580490.12348  20877351.2794   20877356.6574   20877350.5314
        53.7004         48.4004
 -11997673.10048  -7681174.16445  22856695.8634   22856700.8174   22856695.8194
        48.9004         35.9004
   4336466.65846   3948102.36942  25536628.9204   25536637.0974   25536629.0704
        36.4004         16.4004
  -8482311.73647  -6561673.60945  23103700.0824   23103706.7184   23103699.5924
        46.8004         33.1004
 -20930828.28548 -16266127.60747  20877854.5964   20877861.6134   20877854.5724
        52.3004         46.0004
 -22634329.42449 -17606723.78948  20270694.9784   20270701.9614   20270694.1104
        54.4004         50.2004
 -14059782.45648 -10432252.94246  21937672.4054   21937679.3024   21937672.8354
        50.3004         39.7004
 -21582382.39249 -16792307.32148  20754572.7854   20754578.0564   20754572.1194
        54.1004         48.8004
 06 12 27  0 56  0.0000000  0  9G29G18G22G30G16G 6G 7G26G21
  -9611660.22547  -7443243.02545  22817448.0454   22817454.3394   22817447.5604
        46.8004         34.5004
 -20781912.93848 -15610617.67948  20869993.7904   20869999.3294   20869993.2644
        53.7004         48.4004
 -12084893.55548  -7749138.11345  22840098.3574   22840103.6384   22840098.5894
        48.5004         35.9004
   4434510.58846   4024500.16842  25555285.6944   25555294.0284   25555285.4544
        36.0004         17.1004
  -8486977.19347  -6565309.02745  23102812.3294   23102818.6394   23102812.2964
        47.1004         33.1004
 -20872715.62248 -16220845.02147  20888913.0694   20888920.0274   20888912.9564
        52.3004         46.0004
 -22615354.10149 -17591937.82848  20274305.8814   20274312.6064   20274305.1714
        54.4004         50.2004
 -14059224.73948 -10431818.33246  21937778.4894   21937781.6034   21937778.2724
        49.2004         38.7004
 -21601166.10448 -16806943.97948  20750998.3364   20751003.5784   20750997.7834
        53.7004         48.8004
 06 12 27  0 56 30.0000000  0  9G29G18G22G30G16G 6G 7G26G21
  -9577103.11048  -7416315.40445  22824023.8364   22824029.5914   22824025.4564
        48.9004         34.2004
 -20820149.95848 -15640412.74548  20862717.5504   20862722.9934   20862716.9124
        53.4004         48.4004
 -12171841.43548  -7816889.66545  22823552.6854   22823557.3984   22823552.0544
        48.5004         35.9004
   4532363.08246   4100748.85942  25573906.9834   25573917.5764   25573905.8634
        37.1004         17.5004
  -8491102.26647  -6568523.35445  23102027.3484   23102033.8184   23102026.8104
        45.4004         33.1004
 -20814168.82048 -16175224.13647  20900054.1214   20900061.1694   20900053.8744
        52.3004         46.0004
 -22595879.15149 -17576762.54248  20278011.8544   20278018.7574   20278011.0854
        54.4004         50.2004
 -14057983.39348 -10430851.03746  21938014.1784   21938019.4554   21938014.5094
        48.5004         37.6004
 -21619764.85248 -16821436.50848  20747459.1274   20747464.4394   20747458.6434
        53.7004         48.8004
 06 12 27  0 57  0.0000000  0  9G29G18G22G30G16G 6G 7G26G21
  -9541988.11048  -7388953.01345  22830706.6944   22830712.4994   22830707.8904
        49.2004         34.9004
 -20857962.13048 -15669876.76348  20855522.1114   20855527.5674   20855521.4434
        53.4004         48.4004
 -12258517.00348  -7884429.01745  22807058.8744   22807064.1714   22807058.7324
        48.9004         35.9004
   4630020.96646   4176845.88242  25592490.4354   25592499.8204   25592490.4784
        37.1004         17.5004
  -8494688.83247  -6571318.08945  23101344.6184   23101351.4614   23101343.6734
        46.4004         33.1004
 -20755190.60148 -16129267.09347  20911277.3324   20911284.5064   20911277.2344
        52.3004         46.0004
 -22575905.80249 -17561198.90048  20281812.6764   20281819.5314   20281811.9444
        54.4004         50.2004
 -14056059.26848 -10429351.68346  21938380.3764   21938387.7204   21938380.5854
        49.6004         38.7004
 -21638180.07449 -16835786.03148  20743954.8734   20743960.2354   20743954.4294
        54.1004         48.8004
 06 12 27  0 57 30.0000000  0  9G29G18G22G30G16G 6G 7G26G21
  -9506316.94047  -7361157.31345  22837494.5514   22837500.9864   22837492.4934
        46.8004         34.5004
 -20895350.12348 -15699010.25248  20848407.4114   20848412.9914   20848406.8884
        53.4004         48.4004
 -12344920.15848  -7951756.09946  22790616.8624   22790621.4774   22790616.4654
        48.9004         36.3004
   4727480.93046   4252788.72243  25611036.9984   25611045.1364   25611036.5984
        37.4004         18.2004
  -8497738.44347  -6573694.40345  23100764.2994   23100771.0704   23100763.6644
        46.1004         33.1004
 -20695782.77148 -16082975.27947  20922582.2694   20922589.4254   20922582.1384
        52.3004         46.0004
 -22555434.79849 -17545247.47048  20285708.1504   20285715.0464   20285707.5074
        54.4004         50.2004
 -14053453.17648 -10427320.96846  21938876.2304   21938885.2904   21938877.1014
        49.9004         39.7004
 -21656411.88249 -16849992.63348  20740485.4944   20740490.7044   20740485.0814
        54.1004         48.8004
 06 12 27  0 58  0.0000000  0  9G29G18G22G30G16G 6G 7G26G21
  -9470088.08547  -7332927.03345  22844388.2564   22844394.4364   22844388.5594
        47.1004         34.2004
 -20932311.05148 -15727810.96048  20841373.9804   20841379.4614   20841373.0984
        53.4004         48.4004
 -12431046.72948  -8018867.65746  22774227.4904   22774232.1374   22774227.2314
        48.9004         36.6004
   4824743.26046   4328577.54443  25629545.0224   25629551.1124   25629545.8154
        38.1004         19.2004
  -8500248.66147  -6575650.41545  23100286.6284   23100293.5734   23100286.0354
        45.7004         33.5004
 -20635943.65648 -16036347.40247  20933969.3324   20933976.4554   20933969.2454
        52.3004         46.0004
 -22534463.40649 -17528906.13148  20289698.9214   20289705.8764   20289698.2844
        54.4004         50.2004
 -14050161.89847 -10424756.34046  21939502.5704   21939510.6234   21939501.3294
        47.8004         39.4004
 -21674457.05249 -16864053.80148  20737051.6074   20737056.6854   20737051.1084
        54.1004         49.1004
 06 12 27  0 58 30.0000000  0  9G29G18G22G30G16G 6G 7G26G21
  -9433303.61847  -7304263.75945  22851388.0564   22851393.4474   22851386.2844
        46.1004         33.5004
 -20968845.66148 -15756279.48248  20834421.6434   20834427.1644   20834420.8814
        53.4004         48.4004
 -12516896.46248  -8085763.48846  22757890.8684   22757896.0144   22757890.2204
        49.2004         36.6004
   4921805.14646   4404210.13143  25648015.4994   25648023.6444   25648015.8184
        36.7004         19.6004
  -8502221.22247  -6577187.47345  23099911.1594   23099918.7294   23099910.2754
        46.8004         33.5004
 -20575675.17048 -15989384.95847  20945438.0234   20945445.2714   20945437.9854
        52.3004         46.0004
 -22512992.26449 -17512175.37448  20293784.7244   20293791.6714   20293783.9464
        54.4004         50.2004
 -14046186.10247 -10421658.31746  21940258.6524   21940265.5604   21940257.3464
        47.5004         38.3004
 -21692316.14949 -16877969.98448  20733653.1214   20733658.1804   20733652.6914
        54.1004         49.1004
 06 12 27  0 59  0.0000000  0  9G29G18G22G30G16G 6G 7G26G21
  -9395966.01947  -7275169.53745  22858492.5274   22858500.1394   22858490.8864
        45.7004         32.8004
 -21004955.89248 -15784417.31348  20827550.0954   20827555.6474   20827549.4584
        53.4004         48.4004
 -12602469.98748  -8152444.10246  22741606.7374   22741611.0754   22741606.2744
        48.9004         36.9004
   5018662.43246   4479683.34943  25666446.5954   25666453.9564   25666446.4594
        37.4004         19.2004
  -8503658.23447  -6578307.22145  23099637.7504   23099645.2334   23099637.1344
        47.1004         33.5004
 -20514979.88448 -15942089.93547  20956988.0274   20956995.2694   20956988.0594
        52.3004         45.6004
 -22491023.06649 -17495056.51848  20297965.3344   20297972.0444   20297964.6414
        54.4004         50.2004
 -14041526.88948 -10418027.75646  21941144.6094   21941149.8214   21941145.9014
        48.5004         36.9004
 -21709991.12849 -16891742.69048  20730289.7164   20730294.8324   20730289.1694
        54.1004         49.1004
 06 12 27  0 59 30.0000000  0  9G29G18G22G30G16G 6G 7G26G21
  -9358074.56347  -7245643.77945  22865702.7914   22865709.9294   22865703.9534
        47.1004         33.8004
 -21040639.41148 -15812222.63948  20820759.7174   20820765.2864   20820759.1284
        53.4004         48.4004
 -12687763.78848  -8218906.73246  22725375.7294   22725380.5834   22725375.5704
        49.2004         37.3004
   5115315.75446   4554997.61443  25684839.1644   25684847.8224   25684841.3644
        37.1004         19.9004
  -8504557.99147  -6579008.34645  23099466.5864   23099472.8904   23099466.6124
        46.4004         33.5004
 -20453856.71748 -15894461.49647  20968619.3654   20968626.4664   20968619.1674
        52.3004         45.6004
 -22468553.48849 -17477547.76048  20302241.1674   20302247.9754   20302240.4614
        54.4004         50.2004
 -14036182.04048 -10413862.88346  21942162.3174   21942169.7514   21942163.5464
        49.9004         38.3004
 -21727478.69249 -16905369.35548  20726961.9314   20726966.8604   20726961.5634
        54.1004         49.1004
 06 12 27  1  0  0.0000000  0  9G29G18G22G30G16G 6G 7G26G21
  -9319633.31047  -7215689.54845  22873018.2824   22873022.0844   22873017.8094
        47.1004         33.1004
 -21075899.39248 -15839697.94148  20814049.9324   20814055.3374   20814049.4734
        53.4004         48.4004
 -12772779.74148  -8285152.85846  22709197.7984   22709202.2804   22709197.2104
        49.2004         37.3004
   5211759.70146   4630148.73543  25703191.7284   25703200.7254   25703192.1404
        37.7004         19.9004
  -8504923.84847  -6579293.42045  23099396.8824   23099403.9364   23099396.7604
        46.8004         33.8004
 -20392309.79148 -15846502.86547  20980331.3924   20980338.1674   20980331.3694
        52.3004         45.3004
 -22445586.55049 -17459651.45448  20306611.6134   20306618.4004   20306610.9264
        54.4004         50.2004
 -14030154.37548 -10409165.96946  21943309.9504   21943317.4124   21943313.0704
        51.3004         39.4004
 -21744781.82448 -16918852.30548  20723669.2764   20723674.2134   20723668.7934
        53.7004         49.1004
 06 12 27  1  0 30.0000000  0  9G29G18G22G30G16G 6G 7G26G21
  -9280640.11647  -7185305.21745  22880438.5794   22880444.3294   22880439.6814
        47.5004         33.5004
 -21110732.31048 -15866840.46348  20807421.4344   20807426.9334   20807420.8824
        53.4004         48.4004
 -12857513.29048  -8351178.93746  22693073.5114   22693078.3684   22693072.8434
        49.2004         37.3004
   5307995.61846   4705137.73743  25721504.8354   25721514.8034   25721504.7234
        39.5004         21.3004
  -8504753.43247  -6579160.63345  23099429.3714   23099436.1104   23099430.2774
        47.8004         33.8004
 -20330337.31548 -15798212.63847  20992124.3214   20992131.3424   20992124.1254
        52.0004         45.3004
 -22422118.87149 -17441364.95448  20311077.3534   20311084.3634   20311076.6644
        54.4004         50.2004
 -14023440.35748 -10403934.24046  21944588.3804   21944597.0524   21944587.7884
        49.2004         40.1004
 -21761896.85649 -16932188.68748  20720412.3834   20720417.5284   20720411.8474
        54.1004         48.8004
 06 12 27  1  1  0.0000000  0  9G29G18G22G30G16G 6G 7G26G21
  -9241098.01447  -7154493.17945  22887963.4644   22887970.4554   22887964.1424
        47.5004         34.5004
 -21145140.26648 -15893651.84948  20800873.7894   20800879.1844   20800873.1754
        53.7004         48.4004
 -12941965.20748  -8416985.56246  22677002.8604   22677007.4964   22677002.3484
        49.6004         37.6004
   5404019.11446   4779961.18443  25739777.4834   25739786.3234   25739777.5534
        39.5004         21.7004
  -8504049.49647  -6578612.12745  23099563.3534   23099570.6094   23099562.9654
        47.1004         33.8004
 -20267941.71948 -15749592.70447  21003997.8194   21004004.8694   21003997.9754
        52.3004         44.9004
 -22398152.31149 -17422689.71048  20315638.0604   20315644.9574   20315637.3774
        54.4004         50.2004
 -14016041.68548 -10398169.05746  21945996.0054   21946004.7024   21945995.0744
        48.9004         40.1004
 -21778824.98649 -16945379.42848  20717191.0484   20717196.1934   20717190.2184
        54.1004         48.8004
 06 12 27  1  1 30.0000000  0  9G29G18G22G30G16G 6G 7G26G21
  -9201006.34447  -7123252.90945  22895592.7724   22895597.7674   22895591.9424
        46.1004         33.8004
 -21179121.17948 -15920130.47148  20794407.4314   20794412.9744   20794406.7424
        53.4004         48.8004
 -13026131.97148  -8482570.00446  22660986.4664   22660990.8594   22660986.2064
        49.2004         37.6004
   5499830.57146   4854619.41143  25758009.7234   25758017.4554   25758010.3014
        38.4004         20.3004
  -8502810.42547  -6577646.61745  23099799.0624   23099806.2854   23099799.2924
        47.5004         33.8004
 -20205122.06448 -15700642.32847  21015952.0204   21015958.7554   21015951.8094
        52.3004         44.9004
 -22373684.60949 -17403623.97048  20320294.1304   20320301.0774   20320293.5444
        54.4004         50.2004
 -14007955.92847 -10391868.49246  21947534.1224   21947542.6554   21947532.3504
        47.5004         39.0004
 -21795563.41448 -16958422.35848  20714005.8334   20714010.9604   20714005.0434
        53.7004         49.1004
 06 12 27  1  2  0.0000000  0  9G29G18G22G30G16G 6G 7G26G21
  -9160366.42347  -7091585.39645  22903326.1194   22903331.4624   22903326.7674
        46.4004         33.1004
 -21212675.54548 -15946276.72048  20788022.2314   20788027.6494   20788021.7624
        53.4004         48.8004
 -13110013.14848  -8547931.88846  22645024.3894   22645028.5084   22645023.7264
        49.6004         37.3004
   5595426.73946   4929109.88643  25776200.9664   25776210.5594   25776201.5874
        38.8004         20.3004
  -8501037.30447  -6576264.96845  23100136.4834   23100143.4674   23100136.1694
        47.5004         34.2004
 -20141880.21448 -15651362.97447  21027986.5844   21027993.3994   21027986.4684
        52.3004         44.9004
 -22348716.32549 -17384168.16348  20325045.4484   20325052.3514   20325044.7444
        54.4004         50.2004
 -13999183.76747 -10385033.04946  21949203.0294   21949210.9864   21949201.2644
        47.1004         38.7004
 -21812112.78649 -16971317.97148  20710856.5464   20710862.0074   20710855.9334
        54.1004         49.1004
 06 12 27  1  2 30.0000000  0  9G29G18G22G30G16G 6G 7G26G21
  -9119181.19047  -7059492.99745  22911163.6144   22911170.7794   22911164.1814
        47.1004         34.2004
 -21245804.57448 -15972091.53548  20781718.0014   20781723.6384   20781717.2474
        53.4004         48.8004
 -13193608.72748  -8613071.24646  22629116.6534   22629121.4894   22629116.4394
        49.2004         37.6004
   5690804.86246   5003430.48843  25794350.6824   25794358.7864   25794350.2434
        39.1004         19.6004
  -8498731.92447  -6574468.56745  23100575.2574   23100582.4054   23100575.3044
        47.5004         34.2004
 -20078218.23348 -15601756.24247  21040101.1174   21040108.2154   21040101.0514
        52.0004         44.9004
 -22323248.81949 -17364323.35648  20329891.7524   20329898.6034   20329890.9494
        54.4004         50.2004
 -13989726.28248 -10377663.57546  21951002.7814   21951008.7164   21951004.3964
        50.6004         39.0004
 -21828473.75049 -16984066.77548  20707743.1504   20707748.5164   20707742.5584
        54.1004         49.1004
 06 12 27  1  3  0.0000000  0  9G29G18G22G30G16G 6G 7G26G21
  -9077450.80647  -7026975.85045  22919104.5224   22919111.1044   22919103.5554
        45.4004         34.2004
 -21278508.06348 -15997574.76948  20775494.7454   20775500.2894   20775494.1854
        53.7004         48.8004
 -13276916.96148  -8677986.69946  22613263.5724   22613268.1394   22613262.9944
        49.6004         37.6004
   5785963.78146   5077580.25843  25812458.7674   25812469.4824   25812459.8364
        38.4004         20.3004
  -8495894.54547  -6572257.62945  23101115.2264   23101122.4524   23101114.3314
        47.5004         34.2004
 -20014137.09648 -15551822.89847  21052295.3504   21052302.4334   21052295.1994
        52.0004         44.6004
 -22297281.51449 -17344089.10048  20334833.1584   20334839.9654   20334832.4884
        54.1004         50.2004
 -13979582.76048 -10369759.51846  21952933.3244   21952937.2584   21952934.8494
        50.3004         38.7004
 -21844645.10649 -16996667.83248  20704665.8724   20704671.1214   20704665.2784
        54.1004         49.1004
 06 12 27  1  3 30.0000000  0  9G29G18G22G30G16G 6G 7G26G21
  -9035177.75047  -6994035.77445  22927148.7684   22927155.4124   22927149.9544
        47.8004         34.5004
 -21310786.49948 -16022726.78748  20769352.3404   20769357.7244   20769351.7974
        53.4004         48.4004
 -13359937.56148  -8742678.01546  22597465.2944   22597469.8484   22597464.7114
        49.6004         37.6004
   5880900.09546   5151556.53943  25830524.4254   25830534.5514   25830523.7414
        39.5004         22.0004
  -8492526.57547  -6569633.24845  23101756.2184   23101763.2034   23101756.6674
        47.5004         34.2004
 -19949638.32948 -15501564.12447  21064569.0594   21064576.3114   21064568.7624
        51.6004         44.6004
 -22270815.05649 -17323465.89148  20339869.5334   20339876.2914   20339868.7624
        54.1004         49.8004
 -13968753.94348 -10361321.46146  21954994.4154   21955001.1264   21954995.3834
        50.6004         39.7004
 -21860627.05849 -17009121.29748  20701624.5664   20701629.8204   20701624.1244
        54.1004         49.1004
 06 12 27  1  4  0.0000000  0  9G29G18G22G30G16G 6G 7G26G21
  -8992362.20447  -6960672.99145  22935296.6384   22935304.0784   22935296.7244
        46.8004         35.2004
 -21342639.30448 -16047547.14048  20763290.9284   20763296.4504   20763290.1434
        53.0004         48.4004
 -13442668.20548  -8807143.40746  22581722.1224   22581727.1414   22581721.3804
        49.2004         38.0004
   5975613.39846   5225359.07343  25848547.7764   25848558.5054   25848548.0134
        39.8004         22.4004
  -8488627.78647  -6566595.23345  23102498.2184   23102505.2464   23102498.0534
        47.8004         34.2004
 -19884722.23048 -15450980.15847  21076922.1104   21076929.2624   21076921.6814
        51.6004         44.6004
 -22243848.57649 -17302453.04648  20345001.0634   20345007.7554   20345000.1294
        54.4004         49.8004
 -13957238.80348 -10352348.62146  21957185.9234   21957191.4354   21957186.9264
        51.0004         39.7004
 -21876418.23149 -17021426.09948  20698619.6264   20698624.7384   20698618.9744
        54.1004         49.1004
 06 12 27  1  4 30.0000000  0  9G29G18G22G30G16G 6G 7G26G21
  -8949006.64347  -6926889.44845  22943546.8754   22943553.5344   22943546.7734
        46.8004         34.5004
 -21374067.50548 -16072036.63848  20757310.3404   20757315.8884   20757309.8234
        53.0004         48.4004
 -13525109.07648  -8871382.99746  22566034.0984   22566038.7814   22566033.8704
        49.6004         38.0004
   6070100.07346   5298985.00943  25866528.0224   25866538.3954   25866529.9244
        37.4004         19.2004
  -8484200.44247  -6563145.36345  23103340.8754   23103347.7434   23103339.9914
        47.5004         34.2004
 -19819391.27048 -15400072.92347  21089354.1624   21089361.6724   21089353.7144
        51.6004         44.6004
 -22216383.56749 -17281051.74748  20350227.4564   20350234.4734   20350226.7714
        54.8004         49.8004
 -13945038.78348 -10342842.11046  21959508.0964   21959511.8324   21959509.2684
        51.6004         40.1004
 -21892019.35649 -17033582.81548  20695650.8984   20695655.9614   20695650.4294
        54.1004         49.1004
 06 12 27  1  5  0.0000000  0  9G29G18G22G30G16G 6G 7G26G21
  -8905111.57147  -6892685.47945  22951899.7704   22951904.1404   22951899.6514
        46.8004         33.1004
 -21405070.45448 -16096194.77248  20751410.6394   20751415.9824   20751410.0584
        53.0004         48.4004
 -13607258.10748  -8935395.19346  22550401.6624   22550406.5134   22550401.4924
        49.9004         38.3004
   6164359.22846   5372433.64843  25884464.8784   25884473.8994   25884462.4604
        37.7004         18.9004
  -8479243.91147  -6559283.14745  23104284.1724   23104291.1024   23104283.4974
        47.5004         34.2004
 -19753645.66848 -15348842.59647  21101865.1284   21101872.3644   21101864.9534
        51.3004         44.2004
 -22188418.99249 -17259261.17748  20355548.9434   20355555.8484   20355548.2074
        54.8004         49.8004
 -13932152.80748 -10332801.06346  21961960.5594   21961964.0474   21961960.2814
        50.3004         39.4004
 -21907428.82249 -17045590.19448  20692718.5834   20692723.4534   20692718.0694
        54.1004         49.1004
 06 12 27  1  5 30.0000000  0  9G29G18G22G30G16G 6G 7G26G21
  -8860676.88047  -6858061.02945  22960355.3104   22960361.6044   22960355.7164
        46.8004         33.5004
 -21435646.87148 -16120020.53748  20745592.1794   20745597.4124   20745591.6264
        53.4004         48.4004
 -13689112.80448  -8999178.03146  22534825.1404   22534829.8664   22534824.7854
        49.6004         38.3004
   6258390.62146   5445704.80943  25902358.5604   25902368.2684   25902359.9194
        39.5004         21.0004
  -8473757.94447  -6555008.38545  23105328.0354   23105334.7714   23105327.1354
        47.5004         34.2004
 -19687485.12948 -15297288.93547  21114455.0484   21114462.2514   21114454.9174
        51.3004         44.2004
 -22159953.63449 -17237080.38248  20360965.7134   20360972.5954   20360964.9174
        54.8004         49.8004
 -13918579.62848 -10322224.51746  21964543.4014   21964546.1704   21964541.8844
        49.6004         38.7004
 -21922645.05948 -17057447.00148  20689822.9874   20689827.9224   20689822.4644
        53.7004         49.1004
 06 12 27  1  6  0.0000000  0  9G29G18G22G30G16G 6G 7G26G21
  -8815707.05247  -6823019.58845  22968912.8874   22968919.6664   22968912.3634
        47.5004         34.5004
 -21465799.91248 -16143516.40748  20739854.2064   20739859.5544   20739853.6284
        53.0004         48.4004
 -13770674.96648  -9062732.92846  22519304.2804   22519309.1094   22519303.8404
        49.9004         38.7004
   6352188.66946   5518794.14042  25920207.7974   25920217.6094   25920211.6314
        38.1004         17.5004
  -8467746.40147  -6550324.08245  23106472.1164   23106478.9694   23106472.2524
        47.1004         34.2004
 -19620913.86448 -15245415.23747  21127123.1574   21127130.1584   21127122.8274
        51.3004         43.9004
 -22130990.49949 -17214511.71348  20366477.1814   20366484.0854   20366476.3624
        54.8004         49.8004
 -13904322.43348 -10311115.00546  21967255.7614   21967261.0094   21967254.4064
        48.9004         38.0004
 -21937670.42548 -17069155.07448  20686963.7434   20686968.6794   20686963.1634
        53.7004         49.1004
 06 12 27  1  6 30.0000000  0  9G29G18G22G30G16G 6G 7G26G21
  -8770200.72447  -6787560.11445  22977572.4404   22977578.2564   22977572.8874
        47.5004         33.8004
 -21495527.12048 -16166680.45048  20734197.3144   20734202.7324   20734196.7544
        53.0004         48.4004
 -13851940.72048  -9126056.86246  22503839.8944   22503844.4954   22503839.2864
        50.3004         39.0004
   6445754.97646   5591702.90043  25938012.9654   25938020.4274   25938012.2584
        39.8004         18.5004
  -8461207.41747  -6545228.76545  23107716.6804   23107722.8924   23107716.4814
        47.5004         34.2004
 -19553930.65748 -15193220.53747  21139869.6574   21139876.5644   21139869.6434
        51.6004         43.9004
 -22101527.23049 -17191553.32348  20372083.8514   20372090.8024   20372083.1104
        54.8004         49.8004
 -13889378.73047 -10299470.57646  21970098.5644   21970106.6644   21970097.5484
        46.8004         37.3004
 -21952501.76348 -17080711.95548  20684141.3994   20684146.4024   20684140.7674
        53.7004         49.1004
 06 12 27  1  7  0.0000000  0  9G29G18G22G30G16G 6G 7G26G21
  -8724159.21847  -6751683.55345  22986334.1054   22986338.5274   22986333.9024
        47.5004         33.1004
 -21524828.43248 -16189512.63548  20728621.4314   20728626.7914   20728621.0044
        53.4004         48.4004
 -13932909.19048  -9189149.15146  22488432.0694   22488436.4974   22488431.7234
        50.3004         39.0004
   6539087.64445   5664429.57842  25955773.6484   25955782.3324   25955778.3794
        33.6004         16.4004
  -8454141.78647  -6539723.08745  23109061.1754   23109067.8744   23109060.1214
        47.8004         34.2004
 -19486536.52648 -15140705.63647  21152694.3844   21152701.3454   21152693.9254
        51.0004         43.9004
 -22071563.83749 -17168205.23948  20377785.7294   20377792.5794   20377784.9234
        54.8004         49.8004
 -13873748.48848 -10287291.15946  21973072.4764   21973082.4754   21973071.9994
        48.5004         38.3004
 -21967138.56648 -17092117.25648  20681356.1244   20681361.2914   20681355.3964
        53.7004         49.1004
 06 12 27  1  7 30.0000000  0  9G29G18G22G30G16G 6G 7G26G21
  -8677585.53447  -6715392.38845  22995196.4724   22995203.3354   22995193.9094
        44.4004         31.7004
 -21553705.43748 -16212014.18848  20723126.3184   20723131.7764   20723125.7494
        53.0004         48.4004
 -14013580.55848  -9252009.92946  22473080.7664   22473085.5514   22473080.6704
        50.3004         39.4004
   6632183.08446   5736971.43542  25973489.1314   25973500.8114   25973487.2994
        39.5004         16.8004
  -8446551.81047  -6533808.83445  23110505.4244   23110511.2284   23110504.8204
        46.8004         34.2004
 -19418734.17248 -15087872.64147  21165596.6834   21165603.6994   21165596.3334
        51.3004         43.9004
 -22041102.03549 -17144468.78348  20383582.4424   20383589.4914   20383581.7404
        55.1004         50.2004
 -13857433.71348 -10274578.35246  21976177.0474   21976187.8074   21976177.0394
        48.5004         39.7004
 -21981581.67049 -17103371.61748  20678607.6934   20678612.5544   20678606.9584
        54.1004         49.1004
 06 12 27  1  8  0.0000000  0  9G29G18G22G30G16G 6G 7G26G21
  -8630480.28547  -6678687.02745  23004160.1424   23004168.9984   23004161.6604
        47.8004         34.9004
 -21582157.83948 -16234184.88348  20717711.9624   20717717.5404   20717711.4074
        53.0004         48.4004
 -14093952.90048  -9314637.70746  22457786.4294   22457791.2324   22457786.3684
        50.3004         39.7004
   6725040.06547   5809327.42543  25991159.3654   25991168.3324   25991159.3754
        42.3004         20.6004
  -8438437.80947  -6527486.24145  23112049.4214   23112056.1144   23112049.0814
        46.8004         33.8004
 -19350524.11648 -15034721.95347  21178576.6024   21178583.6804   21178576.4174
        51.3004         43.5004
 -22010141.17549 -17120343.45148  20389474.0834   20389480.9444   20389473.4414
        54.8004         50.2004
 -13840433.73348 -10261331.60546  21979412.1634   21979423.5604   21979411.8304
        48.9004         40.1004
 -21995829.95048 -17114474.16948  20675896.3264   20675901.4014   20675895.7854
        53.7004         49.1004
 06 12 27  1  8 30.0000000  0  9G29G18G22G30G16G 6G 7G26G21
  -8582846.30147  -6641569.61845  23013224.9804   23013231.2474   23013222.8874
        44.7004         34.2004
 -21610187.06848 -16256025.83648  20712378.1644   20712383.6264   20712377.4994
        53.0004         48.4004
 -14174026.68148  -9377032.85246  22442548.8594   22442554.3144   22442548.3974
        50.3004         39.7004
   6817655.20746   5881494.98643  26008783.5114   26008790.9424   26008782.8244
        38.8004         20.3004
  -8429801.90247  -6520756.97945  23113692.7514   23113697.9884   23113691.7044
        46.8004         33.8004
 -19281908.91648 -14981255.57947  21191633.6424   21191640.7384   21191633.6374
        51.3004         43.5004
 -21978682.83549 -17095830.48148  20395460.3934   20395467.4274   20395459.9374
        55.1004         50.2004
 -13822750.04147 -10247552.11446  21982776.9374   21982786.6334   21982776.1614
        47.8004         39.7004
 -22009883.44049 -17125424.94348  20673222.0044   20673227.0324   20673221.4574
        54.1004         49.1004
 06 12 27  1  9  0.0000000  0  8G29G18G22G16G 6G 7G26G21
  -8534682.98847  -6604039.82245  23022389.1584   23022393.4684   23022387.8434
        43.0004         30.0004
 -21637791.30448 -16277535.61848  20707125.2464   20707130.6704   20707124.6864
        53.0004         48.4004
 -14253798.82848  -9439192.95646  22427368.7084   22427373.7564   22427368.8864
        49.9004         39.7004
  -8420643.25347  -6513620.36745  23115435.5354   23115441.4614   23115435.3574
        47.5004         33.8004
 -19212888.03948 -14927473.08647  21204767.8714   21204774.8964   21204767.6654
        51.3004         43.5004
 -21946725.30649 -17070928.51248  20401541.7594   20401548.8664   20401541.1974
        55.1004         50.2004
 -13804381.07348 -10233238.64346  21986272.2814   21986282.5364   21986273.4204
        49.2004         39.4004
 -22023740.31348 -17136222.50148  20670585.1194   20670590.3034   20670584.4224
        53.7004         49.1004
 06 12 27  1  9 30.0000000  0  8G29G18G22G16G 6G 7G26G21
  -8485993.58747  -6566099.90845  23031654.7284   23031661.1844   23031656.2564
        47.5004         31.7004
 -21664972.31848 -16298715.62248  20701952.8864   20701958.2314   20701952.5764
        53.0004         48.4004
 -14333269.75848  -9501118.34746  22412245.8464   22412250.8294   22412245.7954
        49.9004         39.7004
  -8410963.88847  -6506077.99245  23117277.5274   23117282.9234   23117277.4924
        47.8004         33.8004
 -19143464.12648 -14873376.53947  21217978.8714   21217985.7194   21217978.4694
        51.0004         43.5004
 -21914270.32849 -17045638.93148  20407717.7594   20407724.6224   20407717.0714
        55.1004         50.2004
 -13785328.73748 -10218392.65546  21989898.1614   21989906.4884   21989898.5704
        48.9004         39.0004
 -22037401.61548 -17146867.66648  20667985.4594   20667990.5164   20667984.8924
        53.7004         49.1004
 06 12 27  1 10  0.0000000  0  8G29G18G22G16G 6G 7G26G21
  -8436780.41547  -6527751.95145  23041020.1594   23041026.7814   23041020.0944
        46.4004         33.5004
 -21691731.42348 -16319566.87248  20696860.7684   20696866.1654   20696860.2724
        53.0004         48.4004
 -14412439.29248  -9562808.88946  22397180.3174   22397184.3934   22397179.7854
        49.9004         39.7004
  -8400766.14647  -6498131.71545  23119218.2094   23119223.6834   23119217.0294
        47.5004         33.5004
 -19073639.45848 -14818967.71747  21231266.0044   21231273.2754   21231265.9904
        51.0004         43.5004
 -21881319.07549 -17019962.65248  20413988.2234   20413995.1114   20413987.5604
        55.1004         50.2004
 -13765594.32348 -10203015.18246  21993653.8634   21993662.7954   21993654.3404
        49.9004         39.7004
 -22050867.31348 -17157360.41648  20665423.0244   20665428.0804   20665422.4164
        53.7004         49.1004
 06 12 27  1 10 30.0000000  0  8G29G18G22G16G 6G 7G26G21
  -8387045.51747  -6488997.50345  23050484.4684   23050491.6644   23050484.4524
        47.1004         34.2004
 -21718069.18448 -16340089.79548  20691848.8624   20691854.4024   20691848.2224
        53.0004         48.4004
 -14491306.70748  -9624264.00846  22382172.3114   22382177.1304   22382172.0854
        49.6004         39.4004
  -8390051.43347  -6489782.60145  23121257.4024   23121262.9824   23121255.9784
        46.8004         33.5004
 -19003415.79248 -14764247.98947  21244629.1364   21244636.1404   21244628.7904
        51.0004         43.5004
 -21847872.29349 -16993900.23848  20420352.9334   20420359.9644   20420352.2444
        55.1004         50.2004
 -13745178.63948 -10187106.82546  21997539.0264   21997546.7874   21997540.3404
        50.3004         39.7004
 -22064137.56348 -17167700.86748  20662897.7694   20662903.0684   20662897.2944
        53.7004         49.1004
 06 12 27  1 11  0.0000000  0  8G29G18G22G16G 6G 7G26G21
  -8336786.61847  -6449834.72245  23060048.4954   23060055.2764   23060047.4114
        46.1004         34.5004
 -21743981.72548 -16360281.37848  20686917.8264   20686923.2634   20686917.2654
        52.7004         48.4004
 -14569867.45648  -9685480.18046  22367222.5854   22367227.7274   22367222.3344
        49.6004         39.4004
  -8378817.12447  -6481028.58745  23123394.9734   23123401.5864   23123393.7684
        47.1004         33.5004
 -18932790.79048 -14709215.53147  21258068.6224   21258076.0354   21258068.4854
        51.0004         43.2004
 -21813926.49249 -16967448.97548  20426812.6134   20426819.5184   20426811.9624
        54.8004         50.2004
 -13724078.47148 -10170665.14846  22001554.7374   22001563.9054   22001555.5804
        51.0004         41.1004
 -22077208.02249 -17177885.64148  20660410.5434   20660415.7254   20660410.2164
        54.1004         49.1004
 06 12 27  1 11 30.0000000  0  8G29G18G22G16G 6G 7G26G21
  -8286007.91647  -6410266.97245  23069710.9854   23069717.8704   23069711.7014
        46.8004         34.2004
 -21769472.41948 -16380144.25048  20682067.1364   20682072.5994   20682066.7734
        53.0004         48.4004
 -14648123.12948  -9746458.62346  22352331.0154   22352336.2434   22352330.7134
        50.3004         39.4004
  -8367066.64447  -6471872.35945  23125630.9164   23125636.2444   23125629.8904
        46.8004         33.5004
 -18861768.38648 -14653873.41547  21271583.7374   21271590.6854   21271583.7594
        51.0004         43.2004
 -21779484.64849 -16940611.18748  20433366.6614   20433373.6904   20433365.9354
        54.8004         49.8004
 -13702297.12348 -10153692.63246  22005700.0364   22005708.6684   22005701.3504
        51.6004         41.5004
 -22090080.35349 -17187916.03048  20657960.9804   20657966.1884   20657960.4624
        54.4004         49.1004
 06 12 27  1 12  0.0000000  0  8G29G18G22G16G 6G 7G26G21
  -8234711.72548  -6370295.84145  23079472.5984   23079476.3874   23079473.1534
        48.2004         33.8004
 -21794541.79748 -16399678.82048  20677296.5814   20677302.1934   20677296.0264
        53.4004         48.4004
 -14726072.98848  -9807198.77946  22337497.6504   22337503.0944   22337497.5224
        50.3004         39.4004
  -8354801.79147  -6462315.33945  23127964.7134   23127970.9264   23127964.0144
        46.8004         33.5004
 -18790350.41848 -14598223.06347  21285174.1184   21285181.4424   21285174.0114
        51.0004         43.2004
 -21744547.52249 -16913387.46648  20440014.9934   20440021.8644   20440014.1334
        54.8004         49.8004
 -13679835.13648 -10136189.80246  22009974.4604   22009982.8754   22009973.3924
        49.2004         41.1004
 -22102754.85049 -17197792.26148  20655549.0994   20655554.3214   20655548.6614
        54.4004         48.8004
 06 12 27  1 12 30.0000000  0  8G29G18G22G16G 6G 7G26G21
  -8182899.03547  -6329922.23745  23089332.3414   23089340.2544   23089331.3194
        45.7004         33.1004
 -21819189.90248 -16418885.12848  20672606.1854   20672611.6754   20672605.4434
        53.4004         48.4004
 -14803715.82948  -9867699.70046  22322722.7124   22322727.6434   22322722.5214
        50.3004         39.7004
  -8342023.14447  -6452357.95445  23130396.4194   23130403.4574   23130395.6004
        47.1004         33.5004
 -18718537.84548 -14542265.22247  21298839.5794   21298847.0064   21298839.4204
        51.0004         43.2004
 -21709115.19349 -16885777.87048  20446757.5614   20446764.2474   20446756.9154
        54.8004         49.8004
 -13656692.75648 -10118156.77746  22014378.0874   22014385.9724   22014378.7834
        50.6004         40.8004
 -22115230.36949 -17207513.44048  20653175.0794   20653180.3064   20653174.4554
        54.4004         48.8004
 06 12 27  1 13  0.0000000  0  8G29G18G22G16G 6G 7G26G21
  -8130570.14947  -6289146.54645  23099289.7314   23099297.9924   23099289.9444
        46.1004         34.2004
 -21843415.89148 -16437762.51048  20667996.1514   20668001.6274   20667995.4744
        53.4004         48.8004
 -14881049.28048  -9927959.53846  22308006.6684   22308011.6674   22308006.3094
        50.3004         40.1004
  -8328730.61447  -6442000.14045  23132925.7694   23132932.5004   23132925.2794
        46.4004         33.5004
 -18646330.83648 -14486000.03647  21312580.1594   21312587.4314   21312579.8684
        51.0004         43.2004
 -21673186.76749 -16857781.70348  20453594.5164   20453601.3994   20453593.9524
        54.8004         49.8004
 -13632869.54948 -10099593.23746  22018911.2414   22018918.1504   22018911.0454
        49.6004         39.4004
 -22127504.98449 -17217078.06848  20650839.2944   20650844.3484   20650838.7724
        54.1004         48.8004
 06 12 27  1 13 30.0000000  0  8G29G18G22G16G 6G 7G26G21
  -8077726.63947  -6247969.81145  23109345.7034   23109352.9704   23109346.3924
        47.1004         35.2004
 -21867219.71248 -16456310.93348  20663466.3804   20663471.8644   20663465.8804
        53.7004         48.8004
 -14958072.07448  -9987977.30046  22293349.7024   22293354.8524   22293349.3954
        50.6004         40.1004
  -8314925.00547  -6431242.52745  23135552.6824   23135558.7004   23135552.6004
        46.8004         33.5004
 -18573730.48148 -14429428.34447  21326395.5754   21326402.9414   21326395.5644
        51.0004         42.9004
 -21636762.17749 -16829398.91848  20460525.9154   20460532.8744   20460525.1234
        54.4004         49.5004
 -13608365.65048 -10080499.25246  22023574.2684   22023581.3264   22023573.5374
        49.9004         39.4004
 -22139577.86849 -17226485.51148  20648541.9114   20648546.8754   20648541.4024
        54.4004         48.8004
 06 12 27  1 14  0.0000000  0  8G29G18G22G16G 6G 7G26G21
  -8024371.23747  -6206394.15645  23119498.9074   23119504.1274   23119498.8344
        46.8004         33.8004
 -21890602.88948 -16474531.57948  20659016.7374   20659022.3224   20659016.1514
        53.7004         48.8004
 -15034784.56548 -10047753.26946  22278751.8134   22278757.1934   22278751.8114
        50.6004         40.4004
  -8300608.85947  -6420087.09645  23138277.1114   23138283.6924   23138276.6044
        47.1004         33.5004
 -18500739.42048 -14372552.20147  21340285.3194   21340292.3884   21340285.0384
        51.0004         42.9004
 -21599843.40549 -16800631.04848  20467551.3204   20467558.1454   20467550.5204
        54.4004         49.5004
 -13583182.87648 -10060876.34146  22028366.2744   22028374.9704   22028367.3694
        50.3004         39.4004
 -22151449.87849 -17235736.41948  20646282.7534   20646287.8014   20646282.2864
        54.4004         48.8004
 06 12 27  1 14 30.0000000  0  8G29G18G22G16G 6G 7G26G21
  -7970507.70247  -6164422.51745  23129748.8484   23129755.6214   23129748.9484
        46.8004         33.1004
 -21913567.44848 -16492426.03148  20654646.7254   20654652.0534   20654646.2864
        53.7004         48.8004
 -15111187.66748 -10107288.14646  22264212.7564   22264217.8814   22264212.8064
        51.0004         40.4004
  -8285785.07447  -6408536.09245  23141097.8024   23141104.1564   23141097.5914
        46.4004         33.5004
 -18427360.95548 -14315374.18847  21354248.8094   21354255.9104   21354248.8614
        51.0004         42.9004
 -21562432.37149 -16771479.59948  20474670.4254   20474677.2454   20474669.7514
        54.1004         49.5004
 -13557323.72348 -10040726.32046  22033287.3414   22033293.1604   22033287.9824
        49.9004         39.0004
 -22163121.91249 -17244831.50448  20644061.5934   20644066.6874   20644061.0344
        54.4004         48.8004
 06 12 27  1 15  0.0000000  0  8G29G18G22G16G 6G 7G26G21
  -7916133.10847  -6122052.72445  23140095.9544   23140103.2164   23140094.0364
        44.4004         33.1004
 -21936109.65048 -16509991.37148  20650357.1144   20650362.5854   20650356.5864
        53.7004         48.8004
 -15187275.83248 -10166577.61646  22249733.7114   22249738.7724   22249733.5204
        51.0004         40.8004
  -8270450.63147  -6396587.19945  23144015.9584   23144022.7744   23144015.5914
        46.8004         33.5004
 -18353592.13048 -14257892.00647  21368286.5654   21368293.6194   21368286.5234
        50.6004         42.5004
 -21524525.31849 -16741941.64148  20481883.8604   20481890.8164   20481883.1474
        54.1004         49.5004
 -13530784.80848 -10020046.66046  22038337.6774   22038345.6384   22038338.1664
        50.3004         39.0004
 -22174589.10249 -17253766.97248  20641879.4284   20641884.6044   20641879.0254
        54.1004         48.8004
 06 12 27  1 15 30.0000000  0  8G29G18G22G16G 6G 7G26G21
  -7861253.46647  -6079289.39545  23150538.6904   23150544.1864   23150539.9154
        46.4004         32.1004
 -21958233.87448 -16527231.01948  20646147.0494   20646152.4414   20646146.4804
        53.7004         48.8004
 -15263052.27648 -10225624.19046  22235313.9274   22235319.3824   22235313.9224
        51.0004         40.8004
  -8254610.70447  -6384244.38545  23147030.1094   23147036.9614   23147029.4954
        46.8004         33.5004
 -18279438.41648 -14200109.90047  21382397.5634   21382404.5634   21382397.4844
        50.6004         42.5004
 -21486126.87449 -16712020.78248  20489190.8544   20489197.7244   20489190.1094
        54.1004         49.1004
 -13503570.71148  -9998840.81646  22043516.7134   22043521.2664   22043517.8904
        50.6004         39.0004
 -22185854.94949 -17262545.54848  20639735.6604   20639740.9494   20639735.2694
        54.4004         49.1004
 06 12 27  1 16  0.0000000  0  8G29G18G22G16G 6G 7G26G21
  -7805868.42247  -6036132.13945  23161078.5444   23161084.9334   23161079.1194
        46.4004         32.4004
 -21979938.64248 -16544143.81748  20642016.7374   20642022.2324   20642016.1804
        53.7004         49.1004
 -15338514.20048 -10284425.67646  22220954.0014   22220959.2144   22220953.6844
        51.0004         41.1004
  -8238264.73447  -6371507.27945  23150140.5804   23150147.5074   23150140.0524
        46.4004         33.1004
 -18204899.42548 -14142027.58847  21396581.8444   21396588.8234   21396581.5354
        50.6004         42.5004
 -21447235.42548 -16681715.76748  20496591.6514   20496598.4924   20496590.8754
        53.7004         49.1004
 -13475680.15448  -9977107.92946  22048824.2844   22048833.5194   22048824.9964
        50.3004         40.1004
 -22196916.79549 -17271165.17148  20637630.6854   20637635.9614   20637630.2164
        54.8004         49.1004
 06 12 27  1 16 30.0000000  0  8G29G18G22G16G 6G 7G26G21
  -7749981.51146  -5992583.93145  23171713.2674   23171721.0664   23171709.8194
        40.9004         30.7004
 -22001225.95448 -16560731.32648  20637965.9064   20637971.3954   20637965.2944
        53.7004         49.1004
 -15413662.24148 -10342982.57446  22206653.8814   22206659.3774   22206654.1234
        51.3004         41.1004
  -8221415.47447  -6358377.98545  23153346.8424   23153353.6554   23153346.3024
        46.4004         33.5004
 -18129978.26148 -14083647.47047  21410838.8994   21410846.4024   21410838.6454
        51.0004         42.5004
 -21407853.30149 -16651028.40748  20504085.7944   20504092.6314   20504085.0874
        54.1004         49.1004
 -13447115.75148  -9954849.94446  22054259.9784   22054264.9664   22054260.3534
        49.9004         39.4004
 -22207775.63349 -17279626.59548  20635564.3504   20635569.4424   20635563.7464
        54.4004         49.1004
 06 12 27  1 17  0.0000000  0  8G29G18G22G16G 6G 7G26G21
  -7693591.15947  -5948643.43945  23182443.5704   23182449.1264   23182445.2374
        47.1004         31.4004
 -22022092.91948 -16576991.28848  20633995.0684   20634000.3834   20633994.4834
        53.4004         49.1004
 -15488492.40648 -10401291.77246  22192414.1784   22192419.3624   22192413.9224
        51.0004         41.5004
  -8204060.99647  -6344855.01945  23156649.1914   23156655.1924   23156648.9064
        46.8004         33.5004
 -18054673.27548 -14024968.27947  21425168.9554   21425176.1844   21425168.6644
        50.6004         42.5004
 -21367977.88948 -16619956.67348  20511673.8044   20511680.5744   20511672.9244
        53.7004         49.1004
 -13417875.23848  -9932065.10346  22059824.3414   22059830.5764   22059824.9214
        50.6004         39.4004
 -22218427.61449 -17287926.83848  20633537.3114   20633542.3204   20633536.7604
        54.8004         49.1004
 06 12 27  1 17 30.0000000  0  8G29G18G22G16G 6G 7G26G21
  -7636703.35647  -5904315.17345  23193269.8154   23193277.3594   23193270.5634
        47.5004         33.5004
 -22042543.70248 -16592926.95148  20630103.3704   20630108.7834   20630102.6674
        53.0004         49.1004
 -15563007.47348 -10459355.43646  22178234.4684   22178239.7374   22178234.2184
        51.3004         41.5004
  -8186206.68847  -6330942.58245  23160046.7844   23160053.3384   23160046.1244
        46.8004         33.5004
 -17978989.79248 -13965994.14147  21439571.0784   21439578.7214   21439571.1144
        51.0004         42.9004
 -21327613.37049 -16588503.81348  20519354.9424   20519361.8914   20519354.1774
        54.1004         49.1004
 -13387963.10648  -9908756.95146  22065516.4314   22065519.7294   22065516.1514
        49.9004         38.7004
 -22228876.07849 -17296068.49248  20631549.0274   20631554.1044   20631548.5664
        54.1004         49.1004
 06 12 27  1 18  0.0000000  0  9G29G18G22G 3G16G 6G 7G26G21
  -7579318.21747  -5859599.53645  23204189.6454   23204197.4564   23204185.8564
        42.3004         32.8004
 -22062577.67248 -16608537.82048  20626291.0374   20626296.3204   20626290.2364
        53.0004         49.1004
 -15637205.44248 -10517172.00946  22164115.0434   22164120.6544   22164115.1624
        51.3004         41.5004
   -647939.46546   -441801.5214
        41.9004          1.5004
  -8167852.76747  -6316640.82045  23163539.4694   23163545.6704   23163538.9464
        46.4004         33.5004
 -17902928.09648 -13906725.30247  21454045.2054   21454052.7564   21454045.0044
        51.0004         42.9004
 -21286759.09649 -16556669.32448  20527129.2694   20527136.3944   20527128.5454
        54.1004         49.1004
 -13357379.07548  -9884925.18546  22071336.2804   22071339.8264   22071336.1424
        49.9004         38.0004
 -22239119.11049 -17304050.06848  20629599.8664   20629604.8034   20629599.3464
        54.1004         49.1004
 06 12 27  1 18 30.0000000  0  9G29G18G22G 3G16G 6G 7G26G21
  -7521435.58747  -5814496.23045  23215203.8344   23215208.5434   23215205.6884
        47.5004         32.1004
 -22082193.11348 -16623822.56648  20622558.3484   20622563.7154   20622557.6404
        53.0004         49.1004
 -15711083.15048 -10574739.02746  22150056.5964   22150061.9354   22150056.4854
        51.3004         41.5004
   -746810.12346      -897.1354
        41.6004          1.5004
  -8148997.87147  -6301948.69545  23167127.5224   23167133.8664   23167127.5514
        46.8004         33.5004
 -17826487.32948 -13847161.07647  21468591.4274   21468598.8234   21468591.4434
        51.3004         42.9004
 -21245413.38149 -16524451.89548  20534997.1144   20535004.0094   20534996.3284
        54.1004         49.1004
 -13326121.58948  -9860568.70746  22077284.1334   22077288.8234   22077283.6654
        49.9004         38.3004
 -22249153.33749 -17311868.93948  20627690.4034   20627695.3534   20627689.8174
        54.1004         49.1004
 06 12 27  1 19  0.0000000  0  9G29G18G22G 3G16G 6G 7G26G21
  -7463060.75747  -5769009.24445  23226312.9124   23226319.5794   23226313.8674
        47.5004         33.5004
 -22101393.88448 -16638784.19748  20618904.5174   20618910.1184   20618903.9804
        52.7004         49.1004
 -15784643.26748 -10632058.57746  22136058.5034   22136063.6194   22136058.2764
        51.0004         41.5004
   -845512.95246    -77808.6494
        41.9004          1.5004
  -8129647.20447  -6286870.25245  23170809.9304   23170815.6714   23170809.9324
        46.8004         33.8004
 -17749672.63148 -13787305.48247  21483208.8094   21483216.2214   21483208.7544
        50.6004         42.9004
 -21203580.43348 -16491854.81248  20542957.6624   20542964.6364   20542957.0474
        53.7004         49.1004
 -13294195.51748  -9835691.21146  22083359.4634   22083364.1264   22083358.3894
        49.6004         38.3004
 -22258982.38048 -17319527.93148  20625819.9744   20625825.1524   20625819.3824
        53.7004         48.8004
 06 12 27  1 19 30.0000000  0  9G29G18G22G 3G16G 6G 7G26G21
  -7404193.07847  -5723138.37245  23237514.9644   23237522.0584   23237514.8034
        46.4004         33.8004
 -22120177.92448 -16653421.09848  20615330.0064   20615335.4744   20615329.4044
        53.0004         49.1004
 -15857882.30448 -10689127.93046  22122121.5884   22122126.4934   22122121.1944
        51.0004         41.5004
   -944042.84746   -154585.2784
        41.6004          1.5004
  -8109799.54547  -6271404.54645  23174586.8744   23174593.7794   23174586.1784
        47.1004         33.5004
 -17672482.94048 -13727157.68647  21497897.5054   21497904.4234   21497897.1754
        50.6004         42.9004
 -21161258.17048 -16458876.43148  20551011.3124   20551018.2734   20551010.5814
        53.7004         48.8004
 -13261599.07648  -9810291.39946  22089562.0064   22089568.9634   22089562.5944
        50.3004         38.7004
 -22268602.43748 -17327024.07348  20623989.2984   20623994.3004   20623988.7604
        53.7004         48.8004
 06 12 27  1 20  0.0000000  0  9G29G18G22G 3G16G 6G 7G26G21
  -7344834.69547  -5676885.07545  23248810.3844   23248815.8124   23248809.9044
        45.4004         33.1004
 -22138546.13748 -16667733.98348  20611834.6044   20611840.1254   20611834.1544
        52.7004         49.1004
 -15930799.92948 -10745946.83246  22108245.8064   22108250.9144   22108245.6904
        51.0004         41.5004
  -1042397.93146   -231225.49043                  24075432.5274
        41.6004         21.0004
  -8089456.80447  -6255553.06345  23178458.0824   23178464.0194   23178457.3684
        47.5004         33.8004
 -17594920.20148 -13666719.20447  21512657.1954   21512664.6884   21512657.1274
        51.0004         42.9004
 -21118447.96348 -16425517.83948  20559157.8174   20559164.7194   20559157.1424
        53.7004         48.8004
 -13228333.64548  -9784370.24646  22095892.5074   22095898.2704   22095891.9924
        50.3004         39.4004
 -22278013.27848 -17334357.19148  20622198.4614   20622203.4804   20622197.7404
        53.7004         48.8004
 06 12 27  1 20 30.0000000  0  9G29G18G22G 3G16G 6G 7G26G21
  -7284988.91447  -5630252.02045  23260198.4224   23260204.2554   23260198.1204
        45.4004         31.7004
 -22156500.23048 -16681724.18048  20608418.0544   20608423.6494   20608417.5694
        53.0004         49.1004
 -16003396.49648 -10802515.56646  22094431.1644   22094436.6644   22094430.7744
        51.3004         41.5004
  -1140577.09947   -307728.70443  24056741.0194   24056748.2994   24056740.7754
        42.3004         23.7004
  -8068621.41747  -6239317.70445  23182422.9744   23182428.4094   23182423.0224
        47.1004         33.8004
 -17516987.40448 -13605992.36547  21527487.2724   21527494.6204   21527487.3214
        50.6004         42.5004
 -21075151.45348 -16391780.31148  20567396.8604   20567403.8664   20567396.1884
        53.7004         48.8004
 -13194401.67548  -9757929.75546  22102349.3314   22102354.2054   22102348.5034
        49.2004         38.7004
 -22287215.75048 -17341527.94748  20620447.2674   20620452.5234   20620446.8324
        53.7004         48.8004
 06 12 27  1 21  0.0000000  0  9G29G18G22G 3G16G 6G 7G26G21
  -7224656.39648  -5583239.63445  23271679.6784   23271686.4324   23271682.0304
        49.9004         34.9004
 -22174039.40748 -16695391.05948  20605080.4274   20605086.1554   20605079.8004
        53.0004         49.1004
 -16075669.74248 -10858832.35246  22080678.0274   22080682.8934   22080677.4354
        51.3004         41.5004
  -1238576.35447   -384091.78544  24038092.4724   24038101.4694   24038092.9954
        43.3004         24.8004
  -8047293.80747  -6222698.78345  23186481.4784   23186486.8764   23186481.5234
        47.1004         33.8004
 -17438684.60048 -13544977.20047  21542387.8434   21542395.0194   21542387.6354
        51.0004         42.5004
 -21031368.02448 -16357663.36248  20575728.6014   20575735.4944   20575727.9604
        53.7004         48.8004
 -13159802.73047  -9730969.51946  22108932.8664   22108936.9744   22108930.2964
        47.1004         37.3004
 -22296207.91948 -17348534.82248  20618736.0934   20618741.1914   20618735.3774
        53.7004         48.8004
 06 12 27  1 21 30.0000000  0  9G29G18G22G 3G16G 6G 7G26G21
  -7163840.44547  -5535850.50245  23283253.0964   23283257.7084   23283252.1604
        44.0004         33.1004
 -22191165.72748 -16708736.23248  20601821.3864   20601827.0414   20601820.7264
        53.0004         49.1004
 -16147620.68648 -10914897.99746  22066986.1754   22066991.2074   22066985.8544
        51.0004         41.5004
  -1336394.97347   -460313.99644  24019478.4104   24019486.3554   24019478.7914
        42.6004         26.5004
  -8025477.03547  -6205698.69845  23190633.1734   23190639.6074   23190633.1394
        47.1004         33.8004
 -17360015.32148 -13483676.47147  21557358.1054   21557365.2824   21557357.8924
        51.0004         42.2004
 -20987100.11948 -16323168.89348  20584152.4844   20584159.2994   20584151.9184
        53.7004         48.8004
 -13124539.76148  -9703491.87546  22115642.7404   22115648.6254   22115642.4394
        49.2004         37.6004
 -22304990.63349 -17355378.48948  20617064.7704   20617069.9804   20617064.3034
        54.1004         49.1004
 06 12 27  1 22  0.0000000  0  9G29G18G22G 3G16G 6G 7G26G21
  -7102542.07747  -5488085.62145  23294916.8424   23294923.6714   23294917.0544
        45.7004         31.0004
 -22207878.73248 -16721759.34148  20598641.0024   20598646.5834   20598640.4984
        53.0004         49.1004
 -16219247.43948 -10970711.02246  22053355.9644   22053360.9074   22053355.5804
        51.3004         41.5004
  -1434029.63447   -536392.91744  24000898.9954   24000905.4424   24000897.5044
        42.6004         24.4004
  -8003171.68947  -6188317.89545  23194877.7294   23194883.6524   23194876.8514
        47.1004         33.8004
 -17280980.05948 -13422090.55647  21572398.0674   21572405.3654   21572397.6104
        50.6004         42.2004
 -20942347.46449 -16288296.70648  20592668.6624   20592675.5174   20592668.0334
        54.1004         48.8004
 -13088612.66447  -9675496.73446  22122479.2374   22122484.7944   22122477.8274
        47.5004         37.6004
 -22313562.09249 -17362057.54048  20615433.6904   20615438.8584   20615433.1934
        54.1004         49.1004
 06 12 27  1 22 30.0000000  0  9G29G18G22G 3G16G 6G 7G26G21
  -7040762.82847  -5439945.94145  23306673.4194   23306681.7034   23306672.8764
        45.4004         33.5004
 -22224178.89948 -16734460.76148  20595539.1644   20595544.7144   20595538.6054
        53.0004         49.1004
 -16290548.67748 -11026270.40546  22039787.7074   22039792.5944   22039787.3934
        51.3004         41.8004
  -1531476.89847   -612325.87244  23982355.6874   23982364.3304   23982356.8404
        44.0004         26.5004
  -7980378.56947  -6170557.04045  23199215.0024   23199221.2434   23199215.1184
        46.8004         33.5004
 -17201579.79448 -13360220.23446  21587507.3924   21587514.7804   21587507.3004
        50.6004         41.8004
 -20897110.11949 -16253046.84248  20601277.0624   20601283.9724   20601276.4534
        54.1004         48.8004
 -13052022.18848  -9646984.63746  22129441.8764   22129445.5764   22129441.7964
        49.2004         36.9004
 -22321920.78449 -17368570.80048  20613843.1234   20613848.3194   20613842.6744
        54.1004         49.1004
 06 12 27  1 23  0.0000000  0  9G29G18G22G 3G16G 6G 7G26G21
  -6978506.49647  -5391434.53545  23318520.2724   23318524.7884   23318520.1344
        45.0004         31.7004
 -22240068.17848 -16746842.00848  20592515.5374   20592521.1134   20592515.0484
        53.0004         49.1004
 -16361525.44948 -11081576.95946  22026281.2834   22026286.1464   22026280.9034
        51.3004         41.8004
  -1628736.65747   -688112.56444  23963847.7044   23963853.2904   23963845.1054
        42.3004         25.1004
  -7957101.09347  -6152418.75245  23203644.5524   23203650.6384   23203644.8214
        47.5004         33.5004
 -17121818.10248 -13298068.27946  21602685.5384   21602692.7464   21602685.2224
        50.6004         41.8004
 -20851390.82049 -16217421.42948  20609977.1874   20609984.1774   20609976.5504
        54.1004         48.8004
 -13014771.29748  -9617957.98246  22136530.3544   22136537.5024   22136531.0784
        48.9004         36.6004
 -22330068.16248 -17374919.39948  20612292.7274   20612297.7714   20612292.2374
        53.7004         49.1004
 06 12 27  1 23 30.0000000  0  9G29G18G22G 3G16G 6G 7G26G21
  -6915773.89147  -5342551.86745  23330458.0784   23330462.7724   23330459.2494
        46.1004         30.7004
 -22255546.11648 -16758902.73448  20589570.1864   20589575.7584   20589569.6484
        52.7004         49.1004
 -16432175.79548 -11136629.15546  22012836.9494   22012841.7544   22012836.8004
        51.0004         41.8004
  -1725804.93047   -763750.28644  23945376.5544   23945384.2584   23945378.9694
        44.7004         25.8004
  -7933339.77647  -6133903.42745  23208166.3104   23208171.6554   23208165.6314
        47.1004         33.5004
 -17041695.39848 -13235635.02146  21617932.3574   21617939.8364   21617931.9774
        50.3004         41.5004
 -20805189.07649 -16181420.08548  20618769.1404   20618776.0744   20618768.5044
        54.1004         48.8004
 -12976860.18648  -9588416.81246  22143745.1144   22143748.3004   22143745.9744
        49.2004         36.9004
 -22338002.58548 -17381102.06448  20610782.8684   20610787.8484   20610782.4524
        53.7004         49.1004
 06 12 27  1 24  0.0000000  0  9G29G18G22G 3G16G 6G 7G26G21
  -6852567.60946  -5293300.27944  23342485.5514   23342492.9974   23342481.9464
        40.5004         29.7004
 -22270613.87048 -16770643.84048  20586702.8644   20586708.5304   20586702.3434
        53.0004         49.1004
 -16502499.69348 -11191426.97646  21999454.6404   21999459.6524   21999454.6644
        51.0004         41.8004
  -1822680.36146   -839237.47644  23926941.5054   23926948.2554   23926939.7544
        41.6004         25.1004
  -7909096.68147  -6115012.69945  23212779.5844   23212785.8584   23212779.1974
        47.1004         33.1004
 -16961214.25548 -13172922.45946  21633247.4374   21633254.7014   21633246.9954
        50.3004         41.8004
 -20758506.47549 -16145044.04448  20627652.5804   20627659.3214   20627651.8944
        54.1004         48.8004
 -12938290.73048  -9558362.71446  22151084.3894   22151089.9404   22151085.5534
        49.6004         36.3004
 -22345723.96049 -17387118.71648  20609313.5434   20609318.8154   20609313.1094
        54.1004         49.1004
 06 12 27  1 24 30.0000000  0  9G29G18G22G 3G16G 6G 7G26G21
  -6788888.30247  -5243680.08245  23354602.8674   23354608.8104   23354605.1934
        47.1004         30.7004
 -22285270.68748 -16782064.72748  20583913.7874   20583919.2804   20583913.3734
        53.0004         49.1004
 -16572494.86548 -11245968.64146  21986134.9874   21986139.9854   21986134.7364
        51.3004         41.8004
  -1919358.32447   -914570.93944  23908544.5854   23908553.2194   23908546.9774
        44.4004         26.2004
  -7884371.78947  -6095746.54445  23217484.5294   23217490.2814   23217483.7204
        47.1004         33.1004
 -16880374.63648 -13109930.56446  21648630.6674   21648637.9494   21648630.9654
        50.3004         41.8004
 -20711342.22749 -16108292.68348  20636627.6764   20636634.4354   20636626.9004
        54.1004         48.8004
 -12899062.69747  -9527795.40146  22158549.4874   22158552.9734   22158547.9564
        47.8004         36.9004
 -22353229.87448 -17392967.46748  20607885.2314   20607890.4134   20607884.6884
        53.7004         49.1004
 06 12 27  1 25  0.0000000  0  9G29G18G22G 3G16G 6G 7G26G21
  -6724740.52347  -5193694.69245  23366810.5654   23366814.1134   23366810.5244
        45.7004         30.3004
 -22299519.75348 -16793167.89148  20581202.2844   20581207.6324   20581201.7514
        53.0004         49.1004
 -16642163.04048 -11300255.50547  21972877.6074   21972882.5024   21972877.1644
        51.3004         42.2004
  -2015839.38946   -989750.99144  23890185.0034   23890190.6134   23890182.3814
        41.9004         24.8004
  -7859169.76747  -6076108.58245  23222280.3794   23222286.5764   23222280.3704
        47.1004         33.1004
 -16799180.69448 -13046662.57046  21664081.4334   21664088.5434   21664080.8294
        50.3004         41.8004
 -20663699.68449 -16071168.63648  20645693.7784   20645700.5454   20645693.0444
        54.1004         48.8004
 -12859179.89448  -9496717.87645  22166138.5564   22166140.5884   22166138.6124
        49.2004         35.6004
 -22360522.18248 -17398649.77848  20606497.5314   20606502.5234   20606496.7394
        53.7004         49.1004
 06 12 27  1 25 30.0000000  0  9G29G18G22G 3G16G 6G 7G26G21
  -6660124.40147  -5143344.53644  23379106.0224   23379113.4434   23379103.8734
        42.3004         28.6004
 -22313359.74248 -16803952.28848  20578568.6414   20578574.0854   20578567.9544
        52.7004         49.1004
 -16711501.97848 -11354285.83647  21959682.8094   21959688.0174   21959682.9384
        51.6004         42.2004
  -2112119.11147  -1064774.05544  23871863.6404   23871871.9094   23871865.3324
        45.0004         28.3004
  -7833490.27847  -6056098.56345  23227167.0624   23227172.7284   23227165.7584
        47.1004         32.8004
 -16717632.60248 -12983118.62246  21679599.4874   21679606.9684   21679599.3764
        50.3004         41.8004
 -20615578.09749 -16033671.31148  20654850.9874   20654857.9684   20654850.2954
        54.1004         48.8004
 -12818642.02347  -9465129.94345  22173852.3754   22173857.4814   22173850.9824
        47.5004         35.2004
 -22367598.52348 -17404163.80848  20605150.9184   20605155.8374   20605150.4014
        53.7004         49.1004
 06 12 27  1 26  0.0000000  0  9G29G18G22G 3G16G 6G 7G26G21
  -6595043.71447  -5092632.34245  23391490.4804   23391497.3724   23391491.9874
        46.8004         31.4004
 -22326792.78248 -16814419.58148  20576012.3804   20576017.6894   20576011.8334
        52.7004         49.1004
 -16780512.42448 -11408060.19447  21946550.5944   21946555.4894   21946550.3494
        51.6004         42.5004
  -2208196.60947  -1139639.61444  23853580.2924   23853585.2464   23853577.2124
        43.0004         24.8004
  -7807336.38447  -6035718.89745  23232143.8154   23232149.1874   23232142.8824
        47.1004         32.4004
 -16635733.29648 -12919300.99647  21695184.4214   21695191.6944   21695184.3864
        50.3004         42.2004
 -20566979.66348 -15995802.42148  20664098.9534   20664105.6694   20664098.2624
        53.7004         48.4004
 -12777451.88147  -9433033.69645  22181690.2594   22181694.6004   22181689.2664
        47.8004         35.2004
 -22374459.34748 -17409509.90148  20603845.3534   20603850.3104   20603844.7454
        53.7004         49.1004
 06 12 27  1 26 30.0000000  0  9G29G18G22G 3G16G 6G 7G26G21
  -6529498.48147  -5041558.03744  23403963.6314   23403966.3334   23403962.4844
        44.0004         29.0004
 -22339817.71848 -16824568.87048  20573533.8174   20573539.2344   20573533.2394
        52.7004         49.1004
 -16849191.70248 -11461576.50647  21933481.3304   21933486.2524   21933481.3174
        51.6004         42.5004
  -2304067.42247  -1214344.12644  23835336.7614   23835344.6174   23835337.7494
        44.7004         27.2004
  -7780708.02647  -6014969.51445  23237211.0754   23237216.8104   23237210.3944
        46.8004         32.4004
 -16553482.58948 -12855209.55347  21710836.2424   21710843.5824   21710836.0714
        50.6004         42.2004
 -20517903.57648 -15957561.32948  20673437.7894   20673444.7324   20673437.2474
        53.7004         48.4004
 -12735608.92248  -9400428.78146  22189652.5854   22189661.7004   22189653.1034
        48.9004         36.3004
 -22381102.47249 -17414686.36248  20602581.2244   20602586.2704   20602580.7604
        54.1004         49.1004
 06 12 27  1 27  0.0000000  0  9G29G18G22G 3G16G 6G 7G26G21
  -6463491.74647  -4990124.28244  23416523.8934   23416532.1684   23416525.2274
        44.7004         29.7004
 -22352435.64448 -16834401.01348  20571132.7144   20571138.0254   20571132.1424
        52.7004         49.1004
 -16917539.94348 -11514834.85747  21920475.1324   21920479.7804   21920475.2414
        52.0004         42.5004
  -2399729.99747  -1288886.32344  23817132.7954   23817137.2184   23817128.7754
        42.6004         25.8004
  -7753607.60247  -5993852.28745  23242367.9814   23242372.5804   23242367.2744
        46.8004         32.1004
 -16470883.39648 -12790846.56547  21726554.4124   21726561.7924   21726554.3994
        50.6004         42.2004
 -20468351.41148 -15918949.26648  20682867.2904   20682874.1624   20682866.4994
        53.7004         48.4004
 -12693115.54648  -9367317.07246  22197738.9564   22197746.2934   22197739.3154
        48.5004         37.3004
 -22387528.02149 -17419693.28048  20601358.5124   20601363.5964   20601358.0574
        54.1004         49.1004
 06 12 27  1 27 30.0000000  0  9G29G18G22G 3G16G 6G 7G26G21
  -6397029.42747  -4938335.50745  23429171.4344   23429179.2544   23429171.6724
        45.4004         31.7004
 -22364651.74148 -16843920.04048  20568808.0644   20568813.4844   20568807.4914
        52.7004         49.1004
 -16985560.04148 -11567837.52347  21907531.3584   21907535.9194   21907531.4024
        52.0004         42.5004
  -2495185.28247  -1363267.15244  23798968.2744   23798976.3294   23798968.0974
        43.7004         25.8004
  -7726040.72147  -5972371.59445  23247613.6834   23247619.4374   23247613.4924
        47.1004         32.1004
 -16387940.77048 -12726215.96346  21742337.8654   21742345.1844   21742337.9334
        50.3004         41.8004
 -20418327.74948 -15879969.79948  20692386.4794   20692393.5074   20692385.6594
        53.7004         48.1004
 -12649976.78647  -9333702.46346  22205947.8854   22205953.8124   22205947.5424
        47.5004         36.6004
 -22393738.84749 -17424532.88548  20600176.6274   20600181.8134   20600176.0354
        54.1004         49.1004
 06 12 27  1 28  0.0000000  0  9G29G18G22G 3G16G 6G 7G26G21
  -6330108.59247  -4886189.36045  23441906.0704   23441909.6474   23441905.6864
        44.7004         30.3004
 -22376461.52948 -16853122.45848  20566560.7654   20566566.1614   20566560.1274
        53.0004         49.1004
 -17053246.51548 -11620580.21447  21894651.0674   21894655.5004   21894650.9394
        52.0004         42.5004
  -2590426.33546  -1437480.82944  23780844.0914   23780852.2004   23780839.0184
        41.6004         25.5004
  -7698004.11347  -5950524.88545  23252949.1044   23252954.0684   23252948.7494
        46.4004         31.4004
 -16304651.90448 -12661315.55846  21758187.2104   21758194.7644   21758187.0914
        49.9004         41.8004
 -20367828.84849 -15840620.02148  20701996.0564   20702002.9704   20701995.2974
        54.1004         48.1004
 -12606189.41148  -9299582.46646  22214280.2674   22214286.2424   22214282.1624
        48.2004         36.6004
 -22399729.04048 -17429200.56548  20599036.7384   20599041.9414   20599036.1044
        53.7004         49.1004
 06 12 27  1 28 30.0000000  0  9G29G18G22G 3G16G 6G 7G26G21
  -6262731.47747  -4833687.66044  23454727.4044   23454735.5764   23454726.1614
        43.0004         29.0004
 -22387865.66048 -16862008.78548  20564390.5954   20564395.7974   20564389.9294
        52.7004         49.1004
 -17120599.01448 -11673062.66747  21881834.2984   21881838.9414   21881834.0614
        52.0004         42.5004
  -2685450.51047  -1511525.64944  23762761.6784   23762765.9234   23762761.0534
        42.6004         25.8004
  -7669499.61347  -5928313.56845  23258373.2244   23258379.2914   23258372.7144
        45.4004         31.4004
 -16221018.55648 -12596146.73246  21774102.1164   21774109.2094   21774101.8134
        49.9004         41.5004
 -20316855.69549 -15800900.69948  20711695.9704   20711702.8404   20711695.2924
        54.1004         48.1004
 -12561755.03847  -9264958.23846  22222736.1284   22222743.8874   22222736.7294
        47.8004         36.6004
 -22405498.24149 -17433696.04748  20597938.9014   20597944.1824   20597938.3544
        54.1004         49.1004
 06 12 27  1 29  0.0000000  0  9G29G18G22G 3G16G 6G 7G26G21
  -6194900.17947  -4780832.17245  23467634.9594   23467643.5294   23467635.4644
        45.4004         31.4004
 -22398864.69348 -16870579.44848  20562297.5744   20562302.7454   20562296.9884
        52.7004         49.1004
 -17187616.54248 -11725284.10947  21869081.2264   21869086.0534   21869081.0404
        52.0004         42.9004
  -2780255.25347  -1585399.42544  23744720.5174   23744728.0274   23744719.3634
        43.0004         25.8004
  -7640528.90547  -5905738.97345  23263886.0834   23263891.7884   23263885.6574
        46.4004         31.4004
 -16137042.52248 -12530710.87246  21790082.2154   21790089.4674   21790081.8904
        49.9004         41.1004
 -20265409.10248 -15760812.45948  20721485.9624   20721492.6764   20721485.2244
        53.7004         48.1004
 -12516674.87548  -9229830.82846  22231314.7264   22231321.6014   22231315.4714
        48.5004         36.9004
 -22411045.63349 -17438018.69048  20596883.2224   20596888.3774   20596882.7854
        54.1004         49.1004
 06 12 27  1 29 30.0000000  0  9G29G18G22G 3G16G 6G 7G26G21
  -6126619.14047  -4727626.14645  23480628.8164   23480635.4404   23480629.7284
        45.7004         32.8004
 -22409461.58048 -16878836.74748  20560281.0334   20560286.3884   20560280.4044
        52.7004         49.1004
 -17254300.74048 -11777245.81347  21856391.6244   21856396.3684   21856391.2454
        52.0004         42.9004
  -2874840.03447  -1659101.85144  23726721.7024   23726728.5244   23726721.5924
        43.7004         26.9004
  -7611096.04947  -5882804.27245  23269487.1184   23269493.4704   23269487.0094
        45.4004         31.4004
 -16052727.48448 -12465010.85646  21806126.8714   21806133.8564   21806126.3934
        49.6004         40.8004
 -20213492.32548 -15720357.83448  20731365.4034   20731372.2084   20731364.6454
        53.7004         48.1004
 -12470952.84848  -9194203.27646  22240015.6544   22240022.5784   22240015.9574
        48.2004         37.3004
 -22416372.70648 -17442169.65848  20595869.5264   20595874.4594   20595868.9474
        53.7004         49.1004
 06 12 27  1 30  0.0000000  0  9G29G18G22G 3G16G 6G 7G26G21
  -6057889.01146  -4674070.15744  23493707.5574   23493713.5154   23493704.5774
        41.2004         29.3004
 -22419655.91748 -16886780.37348  20558341.1024   20558346.1254   20558340.3574
        52.7004         49.1004
 -17320649.70148 -11828946.29247  21843765.8904   21843770.5894   21843765.8464
        52.3004         42.9004
  -2969201.43747  -1732630.22444  23708764.8564   23708773.4204   23708764.3844
        43.3004         25.8004
  -7581201.45447  -5859509.78945  23275175.8164   23275182.5914   23275175.2414
        45.7004         31.4004
 -15968074.09948 -12399047.19246  21822235.8174   21822243.0404   21822235.8014
        49.2004         40.4004
 -20161105.03149 -15679536.57248  20741334.3624   20741341.2914   20741333.7634
        54.1004         48.1004
 -12424589.26048  -9158075.77146  22248838.4464   22248842.2804   22248838.7294
        48.2004         36.3004
 -22421477.47049 -17446147.38948  20594898.1044   20594903.1184   20594897.4994
        54.1004         49.1004
 06 12 27  1 30 30.0000000  0  9G29G18G22G 3G16G 6G 7G26G21
  -5988712.75547  -4620166.58345  23506871.0064   23506880.1924   23506872.5414
        45.7004         31.0004
 -22429448.78748 -16894411.17448  20556477.5704   20556482.7174   20556476.9374
        52.7004         49.1004
 -17386663.56948 -11880385.66547  21831203.8994   21831208.7054   21831203.6424
        52.3004         43.2004
  -3063337.25946  -1805982.83944  23690851.8514   23690860.8774   23690850.5854
        40.2004         27.9004
  -7550847.76647  -5835857.56645  23280951.9554   23280957.4484   23280951.5834
        45.7004         31.4004
 -15883084.90748 -12332821.86246  21838408.7084   21838416.1624   21838408.9144
        49.6004         40.4004
 -20108249.01748 -15638350.07548  20751392.5214   20751399.3674   20751391.9204
        53.7004         48.1004
 -12377586.34748  -9121450.12246  22257782.8734   22257790.4574   22257783.1274
        48.2004         36.9004
 -22426359.58649 -17449951.63748  20593969.0504   20593974.0684   20593968.5024
        54.1004         49.1004
 06 12 27  1 31  0.0000000  0  9G29G18G22G 3G16G 6G 7G26G21
  -5919092.83047  -4565917.26445  23520119.7984   23520127.9614   23520119.1104
        44.4004         33.8004
 -22438840.90448 -16901729.69248  20554690.2814   20554695.5494   20554689.6944
        52.7004         49.1004
 -17452341.87948 -11931563.56947  21818705.6914   21818710.4714   21818705.3854
        52.3004         43.2004
  -3157245.35346  -1879157.93944  23672981.3584   23672989.3834   23672979.6874
        41.9004         26.2004
  -7520036.71647  -5811848.95545  23286815.0824   23286821.3724   23286814.7744
        46.1004         31.7004
 -15797761.68748 -12266336.24846  21854645.1164   21854653.1044   21854644.9544
        49.6004         40.1004
 -20054925.25349 -15596799.09748  20761539.6964   20761546.4424   20761538.8164
        54.1004         48.1004
 -12329945.89547  -9084327.71446  22266848.5694   22266852.1064   22266848.2224
        47.8004         36.6004
 -22431018.28249 -17453581.79048  20593082.5104   20593087.5344   20593082.1064
        54.1004         49.1004
 06 12 27  1 31 30.0000000  0  9G29G18G22G 3G16G 6G 7G26G21
  -5849030.83347  -4511323.63645  23533451.5234   23533456.3294   23533453.4294
        44.4004         30.0004
 -22447833.21448 -16908736.67248  20552979.0654   20552984.2284   20552978.4794
        52.7004         49.1004
 -17517683.48348 -11982479.09947  21806271.5974   21806276.5564   21806270.9534
        52.0004         43.5004
  -3250922.72146  -1952153.29844  23655155.5184   23655163.5694   23655152.2594
        40.2004         27.6004
  -7488770.13547  -5787485.37945  23292765.0864   23292771.3194   23292764.7844
        46.1004         31.7004
 -15712105.95248 -12199591.53946  21870944.8854   21870951.8064   21870944.9404
        49.6004         40.1004
 -20001134.72448 -15554884.41348  20771775.6804   20771782.7124   20771775.1094
        53.7004         48.1004
 -12281669.32647  -9046709.56146  22276035.1254   22276043.6014   22276034.6124
        47.1004         36.3004
 -22435452.86149 -17457037.30848  20592238.6314   20592243.5354   20592238.2204
        54.1004         48.8004
 06 12 27  1 32  0.0000000  0  9G29G18G22G 3G16G 6G 7G26G21
  -5778529.60747  -4456387.41145  23546867.9724   23546875.6784   23546869.1424
        46.8004         30.3004
 -22456426.62948 -16915432.82648  20551343.7674   20551348.9054   20551343.1414
        52.7004         49.1004
 -17582688.15048 -12033132.08247  21793901.5354   21793906.2644   21793901.3064
        52.0004         43.5004
  -3344367.17347  -2024967.05444  23637373.4494   23637379.9704   23637372.4984
        44.7004         27.2004
  -7457050.17747  -5762768.53445  23298801.2084   23298807.1014   23298800.8064
        46.4004         32.1004
 -15626119.84048 -12132589.38146  21887307.5114   21887314.5914   21887307.5224
        48.9004         40.1004
 -19946878.76648 -15512607.05448  20782100.2494   20782107.0374   20782099.6624
        53.7004         48.1004
 -12232758.41448  -9008597.19446  22285342.3394   22285348.8044   22285342.8984
        48.2004         36.9004
 -22439662.73548 -17460317.72448  20591437.5344   20591442.3814   20591437.0254
        53.7004         48.8004
 06 12 27  1 32 30.0000000  0  9G29G18G22G 3G16G 6G 7G26G21
  -5707593.31046  -4401112.43545  23560366.7254   23560375.0864   23560364.0594
        41.2004         31.0004
 -22464623.92448 -16921820.32048  20549783.8344   20549789.2814   20549783.1714
        52.7004         49.1004
 -17647357.57848 -12083523.84247  21781595.3444   21781600.3174   21781594.7664
        52.0004         43.5004
  -3437578.43447  -2097599.22044  23619636.3104   23619643.4814   23619634.0784
        42.3004         27.9004
  -7424880.73247  -5737701.44745  23304922.9194   23304929.6734   23304922.7184
        46.8004         32.4004
 -15539807.44248 -12065332.98446  21903732.2414   21903739.4604   21903731.9824
        49.2004         39.7004
 -19892160.57148 -15469969.51647  20792512.8054   20792519.6784   20792512.1134
        53.7004         47.7004
 -12183217.28548  -8969993.63446  22294769.8024   22294777.3024   22294769.6024
        48.5004         36.3004
 -22443649.32049 -17463424.15148  20590678.9314   20590683.7094   20590678.3704
        54.1004         48.8004
 06 12 27  1 33  0.0000000  0  9G29G18G22G 3G16G 6G 7G26G21
  -5636221.53847  -4345498.14845  23573948.1544   23573955.4784   23573949.6644
        46.4004         32.4004
 -22472423.19548 -16927897.66548  20548299.6604   20548305.1124   20548299.0194
        52.7004         49.1004
 -17711688.45448 -12133651.79547  21769353.5454   21769358.5214   21769353.3104
        52.0004         43.5004
  -3530551.28447  -2170045.48244  23601944.0624   23601950.5504   23601945.5434
        46.4004         29.0004
  -7392260.93647  -5712283.42045  23311130.2814   23311136.0144   23311129.5314
        47.1004         32.8004
 -15453167.85448 -11997821.64146  21920219.2234   21920226.6244   21920219.5784
        49.2004         39.7004
 -19836978.48148 -15426970.49747  20803013.6334   20803020.5014   20803012.9144
        53.7004         47.7004
 -12133044.97347  -8930898.40846  22304317.1174   22304324.7364   22304317.0034
        47.8004         37.3004
 -22447408.90248 -17466353.69048  20589963.5134   20589968.4834   20589962.8254
        53.7004         48.8004
 06 12 27  1 33 30.0000000  0  9G29G18G22G 3G16G 6G 7G26G21
  -5564416.28747  -4289545.92645  23587612.5484   23587618.6524   23587611.4464
        44.4004         30.7004
 -22479824.90548 -16933665.21748  20546891.1694   20546896.6024   20546890.5644
        52.7004         49.1004
 -17775680.00248 -12183515.33647  21757176.3734   21757181.5194   21757176.0104
        52.0004         43.9004
  -3623282.80747  -2242303.80844  23584298.1734   23584304.8244   23584296.9114
        44.7004         28.6004
  -7359192.51047  -5686515.82645  23317423.0504   23317428.4974   23317423.3444
        47.1004         32.8004
 -15366202.63648 -11930056.54846  21936768.1764   21936775.4674   21936768.0324
        49.2004         39.7004
 -19781333.45048 -15383610.74047  20813602.5404   20813609.2344   20813601.7334
        53.4004         47.7004
 -12082242.87648  -8891312.29045  22313984.2334   22313990.6454   22313985.6094
        49.6004         35.9004
 -22450940.53949 -17469105.60648  20589291.4214   20589296.4994   20589290.7214
        54.1004         48.8004
 06 12 27  1 34  0.0000000  0  9G29G18G22G 3G16G 6G 7G26G21
  -5492181.32747  -4233258.96544  23601358.2644   23601365.4734   23601358.4004
        45.7004         29.7004
 -22486831.56548 -16939124.94448  20545557.8374   20545563.2424   20545557.2674
        52.7004         49.1004
 -17839333.18348 -12233115.22747  21745063.5314   21745068.6224   21745063.4064
        52.0004         43.9004
  -3715772.01447  -2314373.27045  23566698.3084   23566706.6614   23566700.2934
        45.7004         30.0004
  -7325679.38547  -5660401.70745  23323800.4164   23323805.7494   23323799.9294
        47.1004         33.1004
 -15278915.21648 -11862040.39746  21953378.5334   21953385.7374   21953378.3624
        49.6004         39.4004
 -19725228.14748 -15339892.33547  20824279.0114   20824285.7854   20824278.3024
        53.7004         47.4004
 -12030814.39547  -8851238.17446  22323771.2314   22323780.1134   22323769.1264
        47.1004         37.6004
 -22454245.07548 -17471680.56848  20588662.5624   20588667.6004   20588662.0864
        53.7004         48.8004
 06 12 27  1 34 30.0000000  0  9G29G18G22G 3G16G 6G 7G26G21
  -5419517.96747  -4176638.14945  23615185.9024   23615192.5084   23615185.4574
        44.4004         30.0004
 -22493442.96548 -16944276.67048  20544299.7304   20544305.1284   20544299.3084
        53.0004         49.1004
 -17902646.40148 -12282450.20047  21733015.4044   21733020.3454   21733015.1374
        52.0004         43.5004
  -3808015.50147  -2386251.27144  23549144.9154   23549151.7614   23549145.8264
        46.1004         29.0004
  -7291721.77247  -5633941.22845  23330262.4264   23330268.2444   23330261.8964
        47.1004         33.1004
 -15191306.48548 -11793773.87446  21970049.9834   21970057.1124   21970049.3414
        49.6004         39.4004
 -19668662.76048 -15295815.41547  20835043.0364   20835049.9824   20835042.5004
        53.7004         47.4004
 -11978760.20048  -8810676.50546  22333676.2484   22333681.6844   22333678.7364
        50.3004         36.3004
 -22457320.74649 -17474077.19048  20588077.2754   20588082.5304   20588076.7114
        54.1004         49.1004
 06 12 27  1 35  0.0000000  0  9G29G18G22G 3G16G 6G 7G26G21
  -5346429.06347  -4119685.83845  23629093.9894   23629101.9694   23629093.1894
        44.0004         30.7004
 -22499660.55548 -16949121.53148  20543116.5294   20543122.0034   20543116.0274
        52.7004         49.1004
 -17965619.96648 -12331520.51147  21721031.9194   21721036.7694   21721031.8034
        52.3004         43.5004
  -3900011.21747  -2457936.23045  23531639.0244   23531646.5124   23531638.0964
        44.4004         30.3004
  -7257322.72947  -5607136.77545  23336808.3384   23336813.8904   23336807.8944
        47.1004         32.8004
 -15103378.95848 -11725258.93646  21986782.0114   21986789.0144   21986781.9284
        49.6004         39.0004
 -19611639.21348 -15251381.48747  20845894.2644   20845901.0314   20845893.7284
        53.7004         47.4004
 -11926083.17747  -8769629.42246  22343700.9874   22343709.1174   22343699.1494
        46.4004         36.3004
 -22460167.46348 -17476295.40548  20587535.5724   20587540.6214   20587534.8664
        53.7004         49.1004
 06 12 27  1 35 30.0000000  0  9G29G18G22G 3G16G 6G 7G26G21
  -5272916.74947  -4062403.41345  23643083.1804   23643088.4124   23643083.9944
        46.4004         30.3004
 -22505484.86248 -16953659.94348  20542008.1804   20542013.7554   20542007.4844
        52.7004         49.1004
 -18028252.82448 -12380325.32447  21709113.2674   21709118.0234   21709112.9544
        52.3004         43.5004
  -3991756.42047  -2529425.98644  23514180.4384   23514187.3454   23514180.8514
        45.7004         29.7004
  -7222484.02847  -5579989.74145  23343438.0044   23343444.0204   23343437.7144
        47.5004         32.8004
 -15015134.22148 -11656496.80946  22003574.3884   22003581.1334   22003574.0234
        48.9004         39.0004
 -19554158.24248 -15206591.12747  20856832.5504   20856839.3664   20856831.8664
        53.7004         47.4004
 -11872784.59648  -8728098.08745  22353843.0554   22353848.6464   22353843.7964
        48.2004         35.9004
 -22462784.17748 -17478334.40248  20587037.5904   20587042.7004   20587037.0314
        53.7004         49.1004
 06 12 27  1 36  0.0000000  0  9G29G18G22G 3G16G 6G 7G26G21
  -5198983.08446  -4004792.92744  23657151.8954   23657157.7304   23657151.2454
        41.9004         27.6004
 -22510916.24448 -16957892.18148  20540974.6094   20540980.1954   20540973.9204
        52.7004         49.1004
 -18090544.72348 -12428864.47447  21697259.5034   21697264.3954   21697259.3404
        52.3004         43.5004
  -4083248.63847  -2600718.57145  23496770.0274   23496777.7384   23496769.5054
        45.4004         30.0004
  -7187207.65147  -5552501.64245  23350150.8034   23350156.1624   23350150.0084
        47.1004         32.4004
 -14926574.06948 -11587488.91746  22020426.8684   22020433.5434   22020426.7064
        48.9004         39.0004
 -19496221.08148 -15161445.30047  20867857.6394   20867864.6024   20867856.9434
        53.7004         47.4004
 -11818866.45547  -8686083.93445  22364103.3464   22364109.7124   22364101.5854
        46.8004         34.9004
 -22465169.92849 -17480193.42848  20586583.5834   20586588.6444   20586582.9654
        54.1004         49.1004
 06 12 27  1 36 30.0000000  0  9G29G18G22G 3G16G 6G 7G26G21
  -5124630.88347  -3946855.97845  23671300.8104   23671308.6464   23671302.0194
        45.7004         31.0004
 -22515956.33148 -16961819.51248  20540015.5244   20540020.9474   20540014.9444
        52.7004         49.5004
 -18152495.03548 -12477137.44847  21685470.7204   21685475.9634   21685470.6314
        52.3004         43.5004
  -4174485.36047  -2671812.12544  23479408.1544   23479412.8294   23479408.7644
        45.7004         29.3004
  -7151495.30247  -5524673.84145  23356946.5904   23356952.2314   23356945.3734
        46.8004         32.1004
 -14837700.61148 -11518236.88746  22037338.9384   22037346.1444   22037338.2084
        48.9004         38.7004
 -19437829.11948 -15115945.08647  20878969.2764   20878976.1794   20878968.4214
        53.4004         47.4004
 -11764330.73448  -8643588.57446  22374481.2534   22374489.0384   22374482.4084
        48.2004         36.3004
 -22467324.13648 -17481872.02648  20586173.6854   20586178.8364   20586173.1794
        53.7004         49.1004
 06 12 27  1 37  0.0000000  0  9G29G18G22G 3G16G 6G 7G26G21
  -5049863.18546  -3888595.48845  23685528.9124   23685533.9434   23685525.8524
        40.2004         30.0004
 -22520606.85548 -16965443.28548  20539130.5884   20539136.0664   20539130.1064
        52.7004         49.5004
 -18214104.43348 -12525144.78047  21673746.8554   21673751.6224   21673746.8874
        52.7004         43.5004
  -4265465.10747  -2742705.41444  23462095.3284   23462101.9414   23462094.1304
        43.7004         29.3004
  -7115350.54047  -5496509.10245  23363824.6814   23363829.9724   23363824.5314
        46.4004         32.1004
 -14748516.96648 -11448743.14946  22054310.0434   22054317.3174   22054309.5794
        49.2004         38.7004
 -19378984.68248 -15070092.29547  20890166.9934   20890174.0934   20890166.3294
        53.4004         47.4004
 -11709180.50247  -8600614.33045  22384976.1344   22384982.1594   22384976.5834
        47.5004         35.6004
 -22469247.05449 -17483370.40448  20585807.7234   20585812.8874   20585807.2224
        54.1004         49.1004
 06 12 27  1 37 30.0000000  0  9G29G18G22G 3G16G 6G 7G26G21
  -4974681.16547  -3830012.07144  23699835.0484   23699839.9554   23699836.4154
        45.4004         28.3004
 -22524866.98248 -16968762.85948  20538319.9084   20538325.3204   20538319.2574
        52.7004         49.5004
 -18275371.26648 -12572885.17047  21662088.1904   21662092.8484   21662088.1384
        52.7004         43.5004
  -4356184.00547  -2813395.40644  23444831.9414   23444837.4644   23444833.2204
        44.7004         29.3004
  -7078773.93747  -5468007.86345  23370785.0094   23370789.9134   23370785.2324
        46.4004         31.7004
 -14659023.43048 -11379007.94446  22071340.1504   22071347.0354   22071339.7094
        48.9004         38.3004
 -19319687.63448 -15023886.81847  20901450.8454   20901457.8104   20901450.1874
        53.4004         47.4004
 -11653416.22047  -8557161.65145  22395587.6824   22395594.5244   22395587.2584
        47.1004         35.6004
 -22470936.13349 -17484686.56948  20585486.3174   20585491.3744   20585485.8754
        54.1004         49.1004
 06 12 27  1 38  0.0000000  0  9G29G18G22G 3G16G 6G 7G26G21
  -4899087.85647  -3771108.11744  23714220.4624   23714227.9414   23714220.4574
        44.0004         29.7004
 -22528738.78448 -16971779.83448  20537583.1104   20537588.4924   20537582.6674
        52.7004         49.5004
 -18336295.67448 -12620358.73747  21650494.6604   21650499.4684   21650494.8344
        52.7004         43.9004
  -4446640.23747  -2883880.77744  23427618.6584   23427625.2794   23427619.6764
        46.4004         29.0004
  -7041768.31447  -5439172.30345  23377826.8224   23377832.9944   23377826.4284
        45.7004         31.7004
 -14569222.85248 -11309033.48246  22088428.6594   22088436.2394   22088428.1794
        48.5004         38.3004
 -19259940.08948 -14977330.30247  20912820.4654   20912827.6634   20912819.8164
        53.4004         47.4004
 -11597040.80248  -8513232.72545  22406315.5264   22406321.0974   22406316.6804
        48.9004         35.6004
 -22472391.45349 -17485820.58348  20585209.3774   20585214.4934   20585208.9864
        54.1004         49.1004
 06 12 27  1 38 30.0000000  0  9G29G18G22G 3G16G 6G 7G26G21
  -4823085.45547  -3711885.62245  23728683.0344   23728691.0704   23728681.7554
        42.6004         30.3004
 -22532222.84348 -16974494.68148  20536920.0954   20536925.5064   20536919.5264
        52.7004         49.5004
 -18396877.34348 -12667565.23847  21638966.4054   21638970.7274   21638966.1954
        53.0004         43.9004
  -4536831.22947  -2954159.44544  23410455.7874   23410463.3854   23410455.1794
        44.7004         29.3004
  -7004335.70647  -5410004.05445  23384950.0174   23384955.7654   23384949.4664
        46.1004         31.7004
 -14479117.18548 -11238821.29646  22105575.1914   22105583.0024   22105574.6894
        48.2004         38.0004
 -19199743.20748 -14930423.65847  20924275.6024   20924282.6424   20924274.7964
        53.4004         47.4004
 -11540056.21647  -8468829.18045  22417159.4264   22417166.2864   22417159.0944
        46.8004         35.9004
 -22473612.62049 -17486772.14348  20584976.9954   20584982.0664   20584976.4974
        54.1004         49.1004
 06 12 27  1 39  0.0000000  0  9G29G18G22G 3G16G 6G 7G26G21
  -4746677.05647  -3652346.46344  23743223.0644   23743225.9194   23743223.4884
        45.0004         28.6004
 -22535320.86748 -16976908.71648  20536330.5674   20536336.1954   20536330.1644
        52.7004         49.5004
 -18457116.00848 -12714504.46147  21627503.3714   21627507.9194   21627503.1814
        52.3004         43.9004
  -4626754.71047  -3024229.72344  23393343.8054   23393350.0784   23393341.3174
        44.0004         29.0004
  -6966478.58547  -5380505.00445  23392154.0334   23392159.7444   23392153.3294
        46.8004         31.4004
 -14388708.61748 -11168373.08646  22122779.3054   22122786.9274   22122778.8194
        48.2004         38.0004
 -19139098.70948 -14883168.21947  20935815.8574   20935822.8884   20935815.1874
        53.0004         47.4004
 -11482464.93147  -8423952.83745  22428118.5874   22428122.8734   22428118.7264
        47.8004         35.9004
 -22474598.81948 -17487540.60748  20584789.3324   20584794.3964   20584788.8874
        53.7004         48.8004
 06 12 27  1 39 30.0000000  0  9G29G18G22G 3G16G 6G 7G26G21
  -4669865.46847  -3592493.23044  23757840.0714   23757846.3244   23757838.4914
        43.3004         29.3004
 -22538034.21448 -16979023.00248  20535814.2614   20535819.6754   20535813.8624
        53.4004         49.5004
 -18517011.95948 -12761176.62947  21616105.5414   21616110.3194   21616105.4624
        52.7004         43.9004
  -4716409.19247  -3094090.31444  23376283.0334   23376290.1784   23376280.4884
        44.0004         29.0004
  -6928199.83947  -5350677.41645  23399438.3474   23399443.4294   23399437.6864
        46.4004         31.7004
 -14298000.04348 -11097691.10346  22140040.6094   22140048.1744   22140040.4794
        48.5004         38.0004
 -19078008.85548 -14835565.74747  20947440.8684   20947447.7634   20947439.9994
        53.0004         47.0004
 -11424269.62948  -8378605.85645  22439192.7024   22439200.3964   22439192.6404
        48.2004         35.9004
 -22475350.13448 -17488126.03948  20584646.3904   20584651.4134   20584645.9764
        53.7004         48.8004
 06 12 27  1 40  0.0000000  0  9G29G18G22G 3G16G 6G 7G26G21
  -4592652.39047  -3532327.31545  23772532.7114   23772540.9444   23772533.0584
        44.7004         30.0004
 -22540362.89248 -16980837.53448  20535371.1454   20535376.5764   20535370.6494
        53.0004         49.5004
 -18576564.31848 -12807581.05547  21604773.1204   21604777.8754   21604773.1874
        52.7004         44.2004
  -4805791.17247  -3163738.59744  23359273.9894   23359280.2294   23359274.2514
        45.4004         29.0004
  -6889501.04847  -5320522.53945  23406802.4064   23406807.3674   23406802.6884
        46.8004         31.7004
 -14206992.76148 -11026776.35746  22157358.7564   22157366.5874   22157358.9204
        48.5004         38.0004
 -19016474.19048 -14787616.66647  20959150.4864   20959157.4114   20959149.5634
        52.7004         47.0004
 -11365471.91947  -8332789.42546  22450381.7954   22450388.5214   22450381.1954
        47.5004         36.3004
 -22475864.91848 -17488527.15648  20584548.4564   20584553.4924   20584548.0644
        53.7004         48.8004
 06 12 27  1 40 30.0000000  0  9G29G18G22G 3G16G 6G 7G26G21
  -4515038.67347  -3471849.06945  23787302.5094   23787307.2784   23787303.8924
        45.4004         30.7004
 -22542306.17848 -16982351.77548  20535001.3614   20535006.7944   20535000.7654
        53.0004         49.5004
 -18635770.81248 -12853715.98747  21593506.5024   21593511.1944   21593506.5074
        52.7004         44.2004
  -4894896.70547  -3233171.43744  23342317.6644   23342323.9844   23342317.7504
        45.7004         29.3004
  -6850382.58647  -5290040.63745  23414246.3294   23414252.2394   23414245.6054
        46.8004         32.1004
 -14115686.90848 -10955628.96446  22174733.7224   22174740.3284   22174733.6614
        48.9004         38.0004
 -18954494.36848 -14739320.71747  20970944.8394   20970951.8614   20970943.9084
        53.0004         46.7004
 -11306072.18448  -8286503.93745  22461684.7194   22461690.2154   22461685.9484
        48.5004         34.9004
 -22476141.02848 -17488742.31048  20584495.9144   20584500.9414   20584495.2704
        53.7004         49.1004
 06 12 27  1 41  0.0000000  0  9G29G18G22G 3G16G 6G 7G26G21
  -4437028.68047  -3411061.95044  23802147.3724   23802153.4894   23802145.2684
        42.3004         28.3004
 -22543867.32248 -16983568.24248  20534704.2864   20534709.6254   20534703.7004
        53.0004         49.5004
 -18694633.04648 -12899582.65447  21582305.4284   21582310.1714   21582305.3314
        52.7004         44.2004
  -4983725.03847  -3302388.31444  23325414.2364   23325419.1354   23325414.1624
        44.7004         29.3004
  -6810848.63647  -5259234.97345  23421769.4004   23421775.3714   23421768.5074
        46.4004         32.1004
 -14024086.56348 -10884252.08546  22192164.7464   22192171.7974   22192164.6144
        48.5004         37.6004
 -18892072.71048 -14690680.47747  20982823.2794   20982830.5664   20982822.4644
        52.7004         46.3004
 -11246074.47147  -8239752.42046  22473102.4364   22473109.5304   22473102.4054
        46.8004         36.6004
 -22476179.01948 -17488771.90948  20584488.6814   20584493.7094   20584488.1354
        53.7004         49.1004
 06 12 27  1 41 30.0000000  0  9G29G18G22G 3G16G 6G 7G26G21
  -4358624.27547  -3349967.67444  23817066.8634   23817074.7884   23817067.6174
        45.0004         29.3004
 -22545046.68348 -16984487.21948  20534479.8354   20534485.2354   20534479.2164
        52.7004         49.5004
 -18753150.60448 -12945180.74947  21571169.8994   21571174.5244   21571169.7504
        52.7004         44.6004
  -5072273.10847  -3371386.79545  23308564.1054   23308569.8974   23308563.9974
        44.7004         30.0004
  -6770900.92547  -5228106.90545  23429371.1894   23429375.8504   23429370.9444
        46.8004         32.4004
 -13932193.07248 -10812646.78846  22209651.4704   22209658.5224   22209651.2384
        48.9004         37.6004
 -18829210.17348 -14641696.69647  20994785.5514   20994792.8184   20994784.7534
        52.7004         46.3004
 -11185480.32347  -8192536.25945  22484632.6044   22484639.9694   22484633.3224
        47.5004         34.5004
 -22475977.98749 -17488615.25948  20584526.9334   20584532.0554   20584526.3294
        54.1004         49.1004
 06 12 27  1 42  0.0000000  0  9G29G18G22G 3G16G 6G 7G26G21
  -4279828.33047  -3288568.25545  23832061.5694   23832067.9684   23832061.0474
        45.0004         31.0004
 -22545845.12348 -16985109.36448  20534327.8684   20534333.2114   20534327.3414
        53.7004         49.5004
 -18811323.08748 -12990509.93947  21560100.0674   21560104.9314   21560099.8534
        52.7004         44.6004
  -5160538.70347  -3440165.14945  23291767.8704   23291773.7394   23291767.0154
        46.4004         30.3004
  -6730541.89247  -5196658.31245  23437051.1434   23437056.6844   23437052.1064
        47.1004         32.1004
 -13840008.85948 -10740814.94046  22227193.5814   22227200.3814   22227192.8154
        49.2004         37.3004
 -18765908.46548 -14592370.69747  21006831.5144   21006838.6964   21006830.8644
        52.7004         46.3004
 -11124292.59748  -8144857.45545  22496276.7414   22496282.6394   22496277.5314
        48.2004         35.9004
 -22475537.38049 -17488271.92648  20584610.7854   20584616.0464   20584610.2114
        54.1004         49.1004
 06 12 27  1 42 30.0000000  0  9G29G18G22G 3G16G 6G 7G26G21
  -4200642.57846  -3226864.96244  23847129.9854   23847135.8944   23847127.5974
        41.9004         27.2004
 -22546263.51948 -16985435.38348  20534248.1984   20534253.6564   20534247.5664
        53.4004         49.5004
 -18869149.40748 -13035569.40347  21549096.0804   21549100.9384   21549095.8814
        52.7004         44.6004
  -5248518.90947  -3508721.11945  23275025.8084   23275031.3694   23275026.7544
        45.4004         31.0004
  -6689773.50147  -5164890.75645  23444809.1654   23444815.0304   23444808.6974
        47.1004         32.4004
 -13747535.46648 -10668757.76046  22244790.6364   22244797.8434   22244790.3324
        48.5004         36.9004
 -18702168.60548 -14542703.28647  21018960.8144   21018967.6594   21018960.1674
        52.7004         46.0004
 -11062512.52747  -8096717.17645  22508032.6204   22508037.4254   22508032.7234
        45.7004         32.8004
 -22474855.77649 -17487740.81148  20584740.4904   20584745.6684   20584739.9614
        54.1004         49.1004
 06 12 27  1 43  0.0000000  0  9G29G18G22G 3G16G 6G 7G26G21
  -4121070.41247  -3164860.75344  23862272.0384   23862279.3204   23862272.7224
        45.4004         29.0004
 -22546303.31548 -16985466.39348  20534240.6224   20534245.9364   20534239.9224
        53.4004         49.5004
 -18926630.55748 -13080359.90647  21538157.8064   21538162.4534   21538157.6544
        53.0004         44.9004
  -5336211.92247  -3577053.32145  23258338.4554   23258344.3904   23258338.5374
        45.4004         31.0004
  -6648598.63747  -5132806.46545  23452644.4634   23452650.4064   23452644.4024
        46.4004         32.1004
 -13654775.76048 -10596477.48746  22262442.2364   22262449.3644   22262443.1014
        48.5004         36.9004
 -18637992.89648 -14492696.25247  21031173.0214   21031179.8314   21031172.3624
        52.7004         46.0004
 -11000143.64947  -8048117.97745  22519901.2854   22519907.9404   22519901.2374
        47.8004         34.2004
 -22473933.45049 -17487022.11448  20584915.9824   20584921.1154   20584915.4604
        54.4004         49.1004
 06 12 27  1 43 30.0000000  0  9G29G18G22G 3G16G 6G 7G26G21
  -4041113.22047  -3102556.47944  23877487.5764   23877494.7034   23877487.4894
        43.7004         29.3004
 -22545964.80248 -16985202.61948  20534304.9974   20534310.3654   20534304.3474
        53.7004         49.5004
 -18983764.89948 -13124880.16747  21527285.4924   21527290.0914   21527285.1114
        52.7004         44.9004
  -5423614.21947  -3645158.96945  23241706.4444   23241713.0334   23241707.8204
        46.4004         31.4004
  -6607018.21347  -5100406.15245  23460556.8724   23460563.0404   23460556.2554
        46.4004         32.1004
 -13561730.68048 -10523974.84446  22280148.1984   22280155.5484   22280147.7354
        49.2004         36.9004
 -18573381.74648 -14442349.91247  21043468.1614   21043475.2944   21043467.5714
        52.7004         46.0004
 -10937186.86448  -7999060.82045  22531881.4584   22531888.9344   22531882.9224
        48.2004         34.5004
 -22472767.91549 -17486113.90048  20585137.7624   20585142.7384   20585137.0964
        54.4004         49.1004
 06 12 27  1 44  0.0000000  0  9G29G18G22G 3G16G 6G 7G26G21
  -3960774.77247  -3039955.07244  23892775.3684   23892778.2814   23892776.0954
        43.7004         27.6004
 -22545250.18848 -16984645.77248  20534440.9864   20534446.4644   20534440.4534
        53.4004         49.5004
 -19040553.64248 -13169131.13047  21516478.9434   21516483.6984   21516478.7024
        53.0004         44.9004
  -5510724.60447  -3713037.18145  23225129.9644   23225136.5334   23225130.1974
        45.0004         31.7004
  -6565035.92547  -5067692.68645  23468545.8004   23468551.4754   23468545.7244
        46.4004         31.7004
 -13468403.67048 -10451252.50746  22297907.7074   22297914.9214   22297908.0994
        48.5004         36.9004
 -18508337.88948 -14391666.40047  21055845.6234   21055852.5434   21055844.9224
        52.7004         46.0004
 -10873645.96047  -7949548.34845  22543973.1644   22543976.6524   22543972.9224
        46.1004         33.5004
 -22471360.46749 -17485017.18748  20585405.5734   20585410.7164   20585405.2014
        54.4004         49.1004
 06 12 27  1 44 30.0000000  0  9G29G18G22G 3G16G 6G 7G26G21
  -3880057.13447  -2977058.16144  23908135.5454   23908143.3744   23908136.6514
        45.4004         28.3004
 -22544160.17748 -16983796.40548  20534648.3914   20534653.6164   20534647.7294
        53.4004         49.5004
 -19096995.69548 -13213111.93847  21505738.3614   21505743.0914   21505738.1874
        53.0004         44.9004
  -5597540.14547  -3780685.59245  23208609.5824   23208615.7024   23208610.2234
        47.1004         32.1004
  -6522654.07847  -5034667.88345  23476610.7524   23476616.4034   23476609.8414
        46.1004         31.4004
 -13374796.25248 -10378311.68746  22315720.5374   22315727.7484   22315720.7784
        48.2004         36.9004
 -18442862.47948 -14340646.60947  21068305.2104   21068312.5284   21068304.4164
        52.7004         46.0004
 -10809522.64547  -7899582.14445  22556174.9344   22556181.4664   22556175.6454
        47.5004         32.8004
 -22469709.13449 -17483730.43748  20585719.8294   20585724.9234   20585719.2034
        54.1004         49.1004
 06 12 27  1 45  0.0000000  0  9G29G18G22G 3G16G 6G 7G26G21
  -3798962.90846  -2913867.92645  23923567.3564   23923574.5174   23923566.0104
        41.6004         30.0004
 -22542695.41648 -16982655.02048  20534927.1394   20534932.3534   20534926.5964
        53.4004         49.5004
 -19153091.00748 -13256822.56347  21495063.7224   21495068.4184   21495063.3574
        53.0004         44.9004
  -5684058.26847  -3848102.28545  23192145.7844   23192150.6354   23192146.1014
        46.4004         32.1004
  -6479874.76247  -5001333.36845  23484751.3814   23484757.3784   23484750.1664
        46.1004         30.7004
 -13280910.56648 -10305154.02846  22333586.4144   22333593.5854   22333586.7004
        48.2004         36.9004
 -18376957.01348 -14289291.70747  21080846.6534   21080853.7524   21080845.8444
        52.7004         46.0004
 -10744819.51647  -7849164.12345  22568487.9834   22568495.7114   22568487.6114
        46.8004         35.2004
 -22467813.39949 -17482253.23948  20586080.5354   20586085.5534   20586079.9134
        54.4004         48.8004
 06 12 27  1 45 30.0000000  0  9G29G18G22G 3G16G 6G 7G26G21
  -3717494.10247  -2850385.78644  23939070.1994   23939074.9674   23939070.7964
        44.4004         27.9004
 -22540856.60348 -16981222.17248  20535277.0804   20535282.2474   20535276.4244
        53.0004         49.5004
 -19208839.05448 -13300262.59047  21484455.1794   21484459.7604   21484454.9014
        52.7004         44.9004
  -5770276.13847  -3915284.99945  23175739.1084   23175745.7984   23175739.6294
        47.1004         32.1004
  -6436699.83447  -4967690.58945  23492967.2114   23492972.6104   23492967.1174
        45.0004         30.3004
 -13186748.27448 -10231780.83546  22351504.9414   22351511.9854   22351504.6954
        48.2004         37.3004
 -18310622.71948 -14237602.66247  21093469.7044   21093476.7214   21093468.8754
        52.3004         46.0004
 -10679538.27447  -7798295.60945  22580910.1144   22580916.3154   22580911.5504
        47.8004         33.1004
 -22465672.38949 -17480584.92348  20586487.9564   20586493.0164   20586487.5114
        54.1004         48.8004
 06 12 27  1 46  0.0000000  0  9G29G18G22G 3G16G 6G 7G26G21
  -3635654.64747  -2786614.59544  23954643.9274   23954650.9894   23954644.2654
        43.0004         26.9004
 -22538646.55648 -16979500.04648  20535697.6074   20535702.8224   20535697.0934
        53.0004         49.5004
 -19264241.06948 -13343432.97447  21473912.5664   21473917.1354   21473912.2504
        52.7004         44.9004
  -5856192.68747  -3982232.94545  23159389.8204   23159395.8724   23159390.1484
        46.8004         32.1004
  -6393133.14047  -4933742.53345  23501257.5894   23501262.4574   23501257.1284
        45.7004         30.0004
 -13092313.04248 -10158194.94946  22369475.3504   22369482.7214   22369475.2454
        48.2004         37.3004
 -18243862.52748 -14185581.74447  21106173.7604   21106180.6494   21106172.9414
        52.3004         46.0004
 -10613682.98648  -7746979.82145  22593442.1804   22593451.0284   22593442.4254
        48.2004         35.6004
 -22463286.47149 -17478725.76448  20586942.0164   20586947.1614   20586941.3974
        54.1004         48.8004
 06 12 27  1 46 30.0000000  0  9G29G18G22G 3G16G 6G 7G26G21
  -3553445.88147  -2722555.93344  23970287.4964   23970294.6934   23970288.1854
        43.3004         29.3004
 -22536064.75048 -16977488.23948  20536188.9484   20536194.3534   20536188.5134
        53.4004         49.5004
 -19319295.30348 -13386332.36647  21463436.0434   21463440.9974   21463435.7034
        53.0004         45.3004
  -5941804.14847  -4048943.13045  23143098.5114   23143105.0544   23143099.1264
        46.8004         32.1004
  -6349175.58047  -4899489.90444  23509622.4494   23509629.1924   23509621.2784
        45.7004         29.7004
 -12997605.53747 -10084396.91246  22387497.5254   22387505.0364   22387496.9084
        47.5004         37.3004
 -18176676.91148 -14133229.33247  21118958.7324   21118965.6084   21118957.9204
        52.3004         45.6004
 -10547254.55847  -7695217.39845  22606083.0934   22606087.6444   22606082.9644
        47.5004         34.2004
 -22460653.00149 -17476673.70048  20587443.1414   20587448.0354   20587442.5004
        54.1004         48.8004
 06 12 27  1 47  0.0000000  0  9G29G18G22G 3G16G 6G 7G26G21
  -3470870.38147  -2658211.41745  23986001.1224   23986008.2554   23986001.1174
        45.0004         30.0004
 -22533112.67048 -16975187.89348  20536750.7174   20536755.7874   20536750.1444
        53.7004         49.5004
 -19374001.59348 -13428960.62247  21453025.7804   21453030.6604   21453025.4704
        52.7004         45.3004
  -6027108.19447  -4115413.80645  23126865.7784   23126871.7274   23126864.6454
        46.1004         31.7004
  -6304829.91047  -4864934.84244  23518061.1144   23518067.8654   23518060.2564
        45.4004         29.3004
 -12902628.18547 -10010388.60746  22405571.0544   22405578.2744   22405571.1264
        47.5004         37.3004
 -18109067.57948 -14080546.74747  21131824.3824   21131831.1514   21131823.7234
        52.3004         45.6004
 -10480255.75847  -7643010.50945  22618832.8134   22618840.9124   22618832.2384
        47.5004         35.9004
 -22457772.20149 -17474428.92248  20587991.3114   20587996.3624   20587990.8514
        54.8004         48.8004
 06 12 27  1 47 30.0000000  0  9G29G18G22G 3G16G 6G 7G26G21
  -3387930.06747  -2593582.49944  24001784.3534   24001787.1884   24001783.4214
        43.3004         27.9004
 -22529790.29948 -16972599.02748  20537382.9104   20537388.2434   20537382.4064
        53.4004         49.5004
 -19428359.40848 -13471317.35047  21442681.7854   21442686.7704   21442681.8804
        53.0004         45.3004
  -6112101.43347  -4181642.26745  23110691.9854   23110698.0584   23110692.1314
        46.8004         31.7004
  -6260097.26847  -4830078.25844  23526573.4354   23526579.7674   23526573.6124
        45.7004         29.3004
 -12807382.14947  -9936170.93346  22423695.7924   22423702.6624   22423695.9184
        47.5004         36.9004
 -18041035.19248 -14027534.51547  21144770.4994   21144777.5494   21144769.5114
        52.3004         45.3004
 -10412688.15147  -7590360.46845  22631690.3094   22631695.8044   22631691.1764
        47.8004         34.9004
 -22454642.25749 -17471989.99748  20588586.9314   20588591.9564   20588586.2384
        54.4004         48.8004
 06 12 27  1 48  0.0000000  0  9G29G18G22G 3G16G 6G 7G26G21
  -3304628.01447  -2528671.79144  24017635.8754   24017644.7144   24017635.1574
        42.3004         26.9004
 -22526099.61748 -16969723.15848  20538085.2424   20538090.3354   20538084.7304
        53.7004         49.5004
 -19482368.87648 -13513402.63347  21432404.1304   21432409.2194   21432403.9454
        53.0004         45.3004
  -6196782.27247  -4247627.32145  23094577.5904   23094583.5424   23094577.7174
        47.1004         32.1004
  -6214981.63247  -4794923.22944  23535158.6544   23535165.0534   23535159.2484
        45.4004         29.3004
 -12711870.39347  -9861746.20746  22441871.1374   22441878.2074   22441870.8664
        47.8004         36.6004
 -17972582.28448 -13974194.59547  21157796.6074   21157803.8434   21157795.9134
        52.3004         45.3004
 -10344554.91747  -7537269.56945  22644655.6534   22644663.6844   22644654.8324
        46.4004         34.2004
 -22451262.87649 -17469356.71048  20589229.9934   20589235.1024   20589229.4134
        54.4004         48.8004
 06 12 27  1 48 30.0000000  0  9G29G18G22G 3G16G 6G 7G26G21
  -3220966.16347  -2463480.77645  24033556.2724   24033564.5994   24033556.8054
        44.7004         31.7004
 -22522041.19748 -16966560.74248  20538857.5654   20538862.6574   20538856.9954
        53.7004         49.5004
 -19536029.53948 -13555216.11947  21422192.7764   21422197.8304   21422192.4754
        52.7004         45.3004
  -6281147.56747  -4313366.49745  23078523.3634   23078530.4684   23078523.0514
        45.4004         32.1004
  -6169484.37347  -4759470.84144  23543816.5304   23543822.2664   23543816.4754
        45.7004         29.7004
 -12616094.40347  -9787115.56945  22460096.6924   22460103.5574   22460096.3594
        46.4004         35.9004
 -17903709.83748 -13920527.76347  21170902.6064   21170909.7804   21170901.6704
        52.0004         45.3004
 -10275857.99047  -7483739.57845  22657728.0414   22657735.2284   22657727.4624
        46.4004         34.9004
 -22447632.76249 -17466528.04348  20589920.7464   20589925.6434   20589920.1054
        54.1004         48.8004
 06 12 27  1 49  0.0000000  0  9G29G18G22G 3G16G 6G 7G26G21
  -3136949.35747  -2398013.16545  24049544.2874   24049551.6214   24049543.7174
        42.3004         30.7004
 -22517617.79048 -16963113.91348  20539699.3124   20539704.4634   20539698.7224
        53.4004         49.5004
 -19589343.04448 -13596759.09047  21412047.5204   21412052.5284   21412047.2284
        53.0004         45.6004
  -6365196.67347  -4378859.27245  23062529.1124   23062536.9544   23062528.6744
        45.7004         31.7004
  -6123609.84847  -4723724.46044  23552546.2804   23552551.7704   23552546.6414
        45.7004         29.7004
 -12520058.34847  -9712282.28545  22478371.7264   22478379.4964   22478372.0674
        46.8004         35.6004
 -17834421.44048 -13866536.81047  21184087.7714   21184094.7784   21184087.4414
        52.3004         44.9004
 -10206601.90247  -7429773.71145  22670907.1544   22670911.3124   22670906.9984
        45.4004         33.8004
 -22443752.99149 -17463504.83948  20590659.0484   20590664.0384   20590658.5544
        54.1004         48.8004
 06 12 27  1 49 30.0000000  0  9G29G18G22G 3G16G 6G 7G26G21
  -3052577.68747  -2332268.92644  24065599.2654   24065604.1494   24065597.6634
        42.6004         25.5004
 -22512828.66148 -16959382.10848  20540610.6644   20540615.7724   20540610.0624
        53.0004         49.5004
 -19642307.22248 -13638029.86447  21401968.7454   21401973.7554   21401968.4164
        53.0004         45.6004
  -6448925.33747  -4444102.37245  23046595.9674   23046600.8934   23046594.1954
        45.4004         31.7004
  -6077358.43847  -4687684.40245  23561347.7424   23561354.4194   23561347.0194
        45.7004         30.0004
 -12423762.17247  -9637246.31845  22496696.2874   22496703.7234   22496695.7124
        47.1004         35.2004
 -17764716.86748 -13812221.56147  21197352.1524   21197359.1744   21197351.8194
        52.0004         44.9004
 -10136787.00747  -7375372.51845  22684192.0234   22684200.3994   22684193.9194
        47.8004         33.8004
 -22439620.48649 -17460284.69748  20591445.4214   20591450.5234   20591444.7894
        54.1004         48.8004
 06 12 27  1 50  0.0000000  0  9G29G18G22G 3G16G 6G 7G26G21
  -2967855.17647  -2266251.37144  24081721.5674   24081729.2124   24081722.2114
        44.7004         29.7004
 -22507676.29548 -16955367.26348  20541591.1174   20541596.0974   20541590.6234
        53.4004         49.5004
 -19694923.09848 -13679029.23347  21391956.2294   21391961.0914   21391956.0674
        53.0004         45.6004
  -6532332.11947  -4509094.67545  23030724.0054   23030730.2574   23030723.2724
        45.0004         31.7004
  -6030733.82147  -4651353.54145  23570220.0744   23570226.1694   23570219.7664
        45.7004         30.3004
 -12327209.33147  -9562010.34545  22515069.7564   22515077.2474   22515070.7114
        47.1004         35.2004
 -17694598.90948 -13757584.20447  21210695.1654   21210702.0064   21210694.7124
        52.0004         44.9004
 -10066417.33147  -7320539.02045  22697583.2324   22697589.4874   22697581.1524
        44.7004         34.5004
 -22435235.64048 -17456867.93548  20592279.8484   20592284.8284   20592279.3224
        53.7004         48.8004
 06 12 27  1 50 30.0000000  0  9G29G18G22G 3G16G 6G 7G26G21
  -2882784.78947  -2199962.80145  24097910.2214   24097917.5564   24097910.8234
        43.7004         31.4004
 -22502161.69748 -16951070.16248  20542640.5064   20542645.5514   20542639.7764
        53.0004         49.5004
 -19747190.86848 -13719757.35047  21382009.9944   21382015.1834   21382009.8534
        52.7004         45.6004
  -6615414.91847  -4573834.52245  23014913.7014   23014919.3604   23014912.4884
        45.4004         32.1004
  -5983738.62547  -4614733.91145  23579162.9764   23579169.5084   23579163.2654
        46.4004         30.7004
 -12230402.31047  -9486576.31445  22533491.5394   22533499.3434   22533491.4284
        47.1004         35.2004
 -17624069.65048 -13702626.35047  21224116.4394   21224123.2904   21224115.7004
        52.0004         44.9004
  -9995495.27447  -7265275.00345  22711078.7504   22711087.0344   22711080.4164
        47.1004         32.1004
 -22430598.42648 -17453254.52248  20593162.2684   20593167.3684   20593161.6114
        53.7004         48.8004
 06 12 27  1 51  0.0000000  0  9G29G18G22G 3G16G 6G 7G26G21
  -2797367.23746  -2133403.73844  24114164.3144   24114167.3654   24114162.1534
        41.6004         26.9004
 -22496284.41948 -16946490.45948  20543758.9204   20543764.0664   20543758.3624
        53.0004         49.5004
 -19799108.79648 -13760212.86947  21372130.3204   21372135.4114   21372130.0124
        52.7004         46.0004
  -6698169.57047  -4638318.64645  22999165.8394   22999172.7534   22999164.3304
        44.7004         32.1004
  -5936374.05547  -4577826.47245  23588176.3294   23588182.8974   23588176.0164
        46.4004         30.7004
 -12133341.75147  -9410944.71945  22551961.5994   22551969.0324   22551961.4324
        46.8004         35.2004
 -17553129.25548 -13647348.13747  21237615.9424   21237623.2954   21237615.1154
        51.6004         44.6004
  -9924022.17347  -7209581.74345  22724679.9674   22724688.7004   22724679.0924
        46.1004         34.9004
 -22425706.44548 -17449442.58848  20594093.1824   20594098.2034   20594092.7064
        53.7004         48.8004
 06 12 27  1 51 30.0000000  0  9G29G18G22G 3G16G 6G 7G26G21
  -2711607.27147  -2066577.65844  24130484.0804   24130490.3884   24130484.2634
        45.4004         27.2004
 -22490047.75148 -16941630.71248  20544945.6734   20544950.8694   20544945.0604
        53.0004         49.5004
 -19850678.46548 -13800397.00747  21362316.9064   21362322.0044   21362316.5164
        53.0004         46.0004
  -6780595.56047  -4702546.66245  22983480.5804   22983487.7784   22983479.6984
        45.7004         32.4004
  -5888644.23147  -4540634.39645  23597258.9444   23597265.3834   23597258.4384
        46.4004         30.7004
 -12036031.58347  -9335118.61845  22570479.0954   22570486.4154   22570478.9234
        47.8004         35.6004
 -17481781.22648 -13591752.28647  21251193.0134   21251199.8514   21251192.1164
        52.0004         44.6004
  -9852002.32047  -7153462.33245  22738384.7024   22738389.6714   22738385.2434
        47.1004         32.4004
 -22420560.36448 -17445432.65348  20595072.4284   20595077.3914   20595071.8584
        53.4004         48.4004
 06 12 27  1 52  0.0000000  0  9G29G18G22G 3G16G 6G 7G26G21
  -2625506.62247  -1999486.23245  24146868.7314   24146875.0314   24146868.2214
        44.0004         30.0004
 -22483452.06248 -16936491.20948  20546200.7684   20546206.0454   20546200.1424
        53.0004         49.5004
 -19901899.25448 -13840309.29447  21352569.9264   21352575.1534   21352569.5444
        53.0004         46.0004
  -6862689.70147  -4766516.14145  22967858.6014   22967863.3724   22967857.3034
        45.0004         32.8004
  -5840551.01047  -4503159.17645  23606410.8674   23606416.5244   23606411.0724
        46.4004         31.0004
 -11938473.24847  -9259099.16345  22589043.8954   22589051.6474   22589044.0504
        47.5004         35.6004
 -17410026.56248 -13535839.57647  21264847.4144   21264854.7784   21264846.5534
        51.6004         44.2004
  -9779437.77147  -7096918.56445  22752193.2904   22752201.2554   22752193.1444
        45.7004         32.8004
 -22415158.52948 -17441223.43048  20596100.3324   20596105.2844   20596099.5174
        53.4004         48.4004
 06 12 27  1 52 30.0000000  0  9G29G18G22G 3G16G 6G 7G26G21
  -2539069.50146  -1932132.73244  24163316.8444   24163323.7534   24163315.6754
        41.2004         27.2004
 -22476500.14148 -16931074.12148  20547523.6804   20547528.7964   20547523.1264
        53.0004         49.5004
 -19952772.59848 -13879950.84547  21342888.9614   21342894.2594   21342888.4664
        53.0004         46.0004
  -6944451.13447  -4830226.34745  22952299.8054   22952307.6524   22952300.3534
        44.4004         33.1004
  -5792098.64547  -4465404.10445  23615631.1984   23615637.2634   23615630.8894
        46.8004         31.0004
 -11840670.72547  -9182889.41445  22607655.1084   22607662.3554   22607655.1064
        47.5004         35.9004
 -17337868.86648 -13479612.81647  21278578.6114   21278586.0214   21278577.8274
        51.6004         44.2004
  -9706332.83447  -7039953.66445  22766105.0144   22766111.6624   22766106.5124
        47.8004         34.2004
 -22409502.02648 -17436815.76848  20597176.6944   20597181.6894   20597176.1924
        53.7004         48.4004
 06 12 27  1 53  0.0000000  0  9G29G18G22G 3G16G 6G 7G26G21
  -2452296.82347  -1864517.61344  24179829.2804   24179834.9764   24179830.0124
        45.0004         26.9004
 -22469191.11448 -16925378.76648  20548914.5044   20548919.6644   20548913.9534
        53.0004         49.5004
 -20003296.81648 -13919320.35147  21333274.4864   21333279.9984   21333274.5714
        53.0004         46.0004
  -7025875.75147  -4893674.08945  22936805.1814   22936811.5054   22936805.9704
        46.8004         33.1004
  -5743287.81547  -4427369.68945  23624919.5564   23624925.4884   23624918.7294
        45.7004         31.0004
 -11742624.39247  -9106489.69545  22626312.7004   22626320.5134   22626312.9304
        47.8004         35.9004
 -17265308.12048 -13423071.99247  21292386.4844   21292393.5634   21292385.6984
        51.6004         44.2004
  -9632688.07347  -6982568.12845  22780119.0114   22780123.5374   22780118.7824
        46.1004         31.7004
 -22403588.08148 -17432207.49748  20598302.0784   20598307.2214   20598301.7324
        53.4004         48.4004
 06 12 27  1 53 30.0000000  0 10G29G18G22G 3G14G16G 6G 7G26G21
  -2365190.62747  -1796642.59644  24196405.2054   24196410.9554   24196404.7884
        44.0004         28.3004
 -22461525.63348 -16919405.65148  20550373.2174   20550378.4514   20550372.5934
        53.4004         49.5004
 -20053471.13748 -13958417.20747  21323726.6194   21323732.0194   21323726.3914
        53.0004         46.0004
  -7106960.32447  -4956856.85845  22921375.2884   22921383.0624   22921375.1424
        46.4004         33.1004
  -1294350.466 6   1490676.193 9
        41.900         -24.200
  -5694120.28147  -4389057.34745  23634275.8404   23634281.8724   23634275.6414
        46.1004         31.0004
 -11644335.72947  -9029901.13845  22645016.4934   22645024.3604   22645016.2614
        47.1004         35.9004
 -17192345.25748 -13366217.82247  21306270.8614   21306278.0044   21306270.2564
        51.6004         44.2004
  -9558505.91648  -6924763.85745  22794235.5884   22794244.7594   22794236.7584
        48.2004         35.2004
 -22397415.51448 -17427397.70248  20599476.6954   20599481.6054   20599476.0794
        53.7004         48.4004
 06 12 27  1 54  0.0000000  0 10G29G18G22G 3G14G16G 6G 7G26G21
  -2277753.06946  -1728509.48444  24213043.8444   24213050.5864   24213043.4494
        40.9004         26.2004
 -22453504.91148 -16913155.72748  20551899.4884   20551904.5844   20551898.9264
        53.0004         49.5004
 -20103295.50948 -13997241.38047  21314245.3414   21314250.5124   21314245.1254
        53.0004         46.0004
  -7187702.35147  -5019772.74145  22906010.7454   22906019.9424   22906011.3184
        46.4004         33.5004
  -1406968.26346   -993033.5274
        41.2004          1.5004
  -5644598.71947  -4350469.13945  23643699.4714   23643704.9854   23643699.4674
        45.0004         30.7004
 -11545806.99547  -8953125.52145  22663765.8734   22663772.9014   22663765.9714
        47.5004         35.6004
 -17118982.22748 -13309051.84347  21320231.4534   21320238.7284   21320230.8114
        52.0004         44.2004
  -9483788.81147  -6866542.80245  22808453.6814   22808453.4804   22808455.0154
        46.8004         32.8004
 -22390983.46949 -17422385.72248  20600700.6764   20600705.7444   20600700.1924
        54.1004         48.8004
 06 12 27  1 54 30.0000000  0 10G29G18G22G 3G14G16G 6G 7G26G21
  -2189988.19247  -1660121.27544  24229744.8704   24229751.1694   24229746.2964
        43.7004         26.2004
 -22445130.96848 -16906630.56448  20553492.9494   20553498.1544   20553492.2934
        53.0004         49.5004
 -20152770.71148 -14035793.46947  21304830.5154   21304835.6884   21304830.3234
        53.4004         46.0004
  -7268100.31747  -5082420.50345  22890711.5654   22890718.5474   22890712.1904
        46.4004         33.8004
  -1519586.29046  -1080781.6474
        41.2004          1.5004
  -5594726.54947  -4311607.71945  23653189.8364   23653196.2684   23653189.5484
        45.4004         30.7004
 -11447041.13247  -8876165.12245  22682560.4314   22682568.3724   22682560.5904
        47.5004         35.2004
 -17045221.82548 -13251576.21447  21334267.6074   21334274.7134   21334267.0344
        51.6004         44.2004
  -9408540.34947  -6807907.51045  22822773.2034   22822782.4354   22822772.7734
        45.7004         33.1004
 -22384291.82249 -17417171.45348  20601974.1074   20601979.1764   20601973.5314
        54.1004         48.8004
 06 12 27  1 55  0.0000000  0  9G29G18G22G 3G16G 6G 7G26G21
  -2101898.57347  -1591479.95044  24246507.9344   24246514.6854   24246507.5724
        44.0004         27.6004
 -22436405.07948 -16899831.15548  20555153.3994   20555158.7344   20555152.6944
        53.0004         49.5004
 -20201896.88448 -14074073.58747  21295482.1724   21295487.1934   21295482.1644
        53.4004         46.3004
  -7348152.05347  -5144798.48045  22875478.3004   22875485.8984   22875477.4274
        46.8004         33.8004
  -5544506.37547  -4272475.12845  23662746.5034   23662752.4144   23662746.7514
        45.7004         30.7004
 -11348040.62647  -8799021.88545  22701399.6624   22701406.4444   22701399.3084
        46.4004         34.9004
 -16971065.79448 -13193792.31447  21348379.0324   21348386.3834   21348378.3254
        52.0004         44.2004
  -9332763.29347  -6748860.63845  22837192.5614   22837201.2434   22837193.0604
        46.8004         34.2004
 -22377339.57149 -17411754.11548  20603297.1134   20603302.2764   20603296.5454
        54.1004         48.8004
 06 12 27  1 55 30.0000000  0  9G29G18G22G 3G16G 6G 7G26G21
  -2013487.26246  -1522588.00344  24263331.9564   24263337.5264   24263331.0254
        41.2004         26.5004
 -22427328.93948 -16892758.83548  20556880.5314   20556885.7734   20556879.8884
        53.0004         49.5004
 -20250674.34548 -14112081.98447  21286200.1504   21286205.0784   21286200.2304
        53.4004         46.3004
  -7427855.58147  -5206905.10845  22860311.3024   22860318.2854   22860310.6564
        47.1004         33.8004
  -5493941.30247  -4233073.78945  23672368.7524   23672374.4974   23672368.0814
        45.4004         30.3004
 -11248808.16347  -8721697.91845  22720283.0064   22720290.4914   22720283.2954
        46.8004         34.5004
 -16896516.79048 -13135702.20247  21362565.2764   21362572.3194   21362564.4744
        51.6004         43.9004
  -9256461.07447  -6689404.13245  22851712.8004   22851720.9084   22851713.5384
        45.7004         31.7004
 -22370127.29548 -17406134.16248  20604669.5584   20604674.6424   20604668.9354
        53.7004         48.8004
 06 12 27  1 56  0.0000000  0  8G29G18G22G16G 6G 7G26G21
  -1924756.49146  -1453447.20544  24280216.5894   24280223.3994   24280216.3864
        41.6004         25.1004
 -22417903.38648 -16885414.23748  20558674.1334   20558679.4834   20558673.6064
        53.4004         49.5004
 -20299102.82048 -14149818.43747  21276984.5384   21276989.5094   21276984.4904
        53.4004         46.7004
  -5443033.67047  -4193405.52045  23682056.0854   23682062.1604   23682055.3344
        45.7004         30.7004
 -11149345.57147  -8644194.61945  22739210.0914   22739217.2824   22739209.3734
        46.8004         34.2004
 -16821575.97248 -13077306.77647  21376826.0454   21376832.9184   21376825.4824
        51.6004         43.9004
  -9179635.93547  -6629540.53145  22866331.9424   22866341.1664   22866332.3184
        45.7004         34.5004
 -22362652.77448 -17400309.86448  20606091.8874   20606097.0024   20606091.3004
        53.7004         48.8004
 06 12 27  1 56 30.0000000  0  8G29G18G22G16G 6G 7G26G21
  -1835708.07847  -1384058.81344  24297161.9044   24297168.0854   24297162.1854
        43.7004         25.8004
 -22408128.65248 -16877797.55648  20560534.2344   20560539.4704   20560533.6094
        53.4004         49.5004
 -20347181.43948 -14187282.27847  21267835.5194   21267840.6474   21267835.6644
        53.4004         46.7004
  -5391785.09347  -4153471.58645  23691808.2464   23691814.5494   23691808.1824
        45.7004         30.7004
 -11049654.15047  -8566513.01845  22758180.7064   22758188.5494   22758180.9294
        46.4004         34.2004
 -16746244.50048 -13018606.93347  21391161.1884   21391168.4224   21391160.5084
        51.6004         43.9004
  -9102289.72847  -6569270.65445  22881050.4584   22881053.4334   22881050.8084
        46.1004         31.4004
 -22354914.54148 -17394280.07348  20607564.3994   20607569.5014   20607563.9104
        53.7004         48.8004
 06 12 27  1 57  0.0000000  0  8G29G18G22G16G 6G 7G26G21
  -1746345.49647  -1314425.57344  24314167.1644   24314173.3384   24314167.5524
        44.0004         26.9004
 -22398006.62548 -16869910.24948  20562460.3964   20562465.7064   20562459.6554
        53.4004         49.5004
 -20394910.84048 -14224473.99947  21258752.9674   21258758.3494   21258752.8524
        53.4004         46.7004
  -5340198.80947  -4113274.48845  23701624.9914   23701631.4054   23701624.9174
        45.4004         30.7004
 -10949736.99547  -8488655.51245  22777194.3914   22777201.6484   22777193.9174
        46.8004         34.5004
 -16670525.10048 -12959604.81847  21405570.0474   21405577.2174   21405569.5534
        51.6004         43.5004
  -9024426.07147  -6508597.71545  22895867.2924   22895875.8704   22895867.2414
        44.4004         33.1004
 -22346912.61948 -17388044.81448  20609087.0864   20609092.3644   20609086.4964
        53.7004         48.4004
 06 12 27  1 57 30.0000000  0  8G29G18G22G16G 6G 7G26G21
  -1656671.37646  -1244549.62144  24331231.5754   24331238.4364   24331231.2294
        41.2004         25.8004
 -22387538.68648 -16861753.40748  20564452.3744   20564457.6404   20564451.8064
        53.0004         49.5004
 -20442291.34248 -14261393.85747  21249736.8004   21249741.9114   21249736.7134
        53.7004         46.7004
  -5288277.79847  -4072816.57645  23711505.2384   23711511.4414   23711504.7574
        45.7004         30.3004
 -10849596.34047  -8410623.85745  22796250.5394   22796258.1694   22796250.5244
        47.1004         34.2004
 -16594419.62448 -12900301.86147  21420052.4494   21420059.7154   21420051.7474
        51.6004         43.5004
  -8946047.90947  -6447523.84545  22910782.0974   22910787.8504   22910782.5454
        45.4004         32.1004
 -22338647.15148 -17381604.20548  20610659.9764   20610664.9924   20610659.5974
        53.7004         48.4004
 06 12 27  1 58  0.0000000  0  8G29G18G22G16G 6G 7G26G21
  -1566687.32946  -1174432.21144  24348354.8154   24348360.7214   24348353.6954
        40.2004         24.4004
 -22376724.90648 -16853327.08048  20566510.1434   20566515.3364   20566509.7624
        53.0004         49.5004
 -20489321.83648 -14298040.96947  21240787.1864   21240791.9494   21240787.1894
        53.7004         47.0004
  -5236023.68547  -4032099.08945  23721448.8244   23721455.3774   23721448.4834
        45.7004         30.3004
 -10749233.53947  -8332419.09145  22815349.0244   22815355.9224   22815348.6234
        46.8004         34.2004
 -16517928.99848 -12840698.78447  21434608.1534   21434615.5414   21434607.6904
        51.3004         43.5004
  -8867156.98447  -6386050.33845  22925794.4984   22925803.3684   22925793.0344
        43.0004         31.4004
 -22330115.31748 -17374956.02548  20612283.5604   20612288.5124   20612283.1534
        53.7004         48.4004
 06 12 27  1 58 30.0000000  0  8G29G18G22G16G 6G 7G26G21
  -1476396.17247  -1104075.49544  24365536.6354   24365543.2364   24365535.8814
        42.6004         25.5004
 -22365566.77448 -16844632.42948  20568633.4834   20568638.6174   20568632.8924
        53.0004         49.5004
 -20536002.56048 -14334415.53947  21231904.1234   21231908.9774   21231903.7694
        53.7004         47.0004
  -5183439.13047  -3991124.12145  23731455.3654   23731461.6844   23731454.0264
        45.7004         30.0004
 -10648650.96647  -8254043.06445  22834489.2744   22834497.1584   22834489.0824
        46.4004         33.8004
 -16441055.32648 -12780797.22847  21449236.7174   21449243.8414   21449236.0634
        51.3004         43.2004
  -8787756.10247  -6324179.58145  22940903.8374   22940911.5704   22940903.1134
        44.4004         32.4004
 -22321316.92049 -17368100.13048  20613957.8554   20613962.8724   20613957.4644
        54.1004         48.4004
 06 12 27  1 59  0.0000000  0  8G29G18G22G16G 6G 7G26G21
  -1385802.20047  -1033482.77644  24382776.1004   24382783.1824   24382776.4054
        43.3004         26.9004
 -22354066.86548 -16835671.46348  20570821.8234   20570827.1664   20570821.4074
        53.4004         49.5004
 -20582334.97049 -14370518.69847  21223087.3254   21223092.0874   21223087.2924
        54.1004         47.0004
  -5130528.21947  -3949894.84045  23741524.0074   23741528.7764   23741524.3554
        45.4004         30.0004
 -10547852.43447  -8175498.76645  22853670.5814   22853677.2254   22853670.4334
        46.8004         33.5004
 -16363802.12248 -12720599.93647  21463937.4784   21463944.4074   21463936.4764
        51.3004         43.2004
  -8707849.91947  -6261914.92645  22956109.3674   22956117.0474   22956110.2364
        45.0004         30.7004
 -22312251.79949 -17361036.39748  20615682.8924   20615687.9064   20615682.5004
        54.1004         48.8004
 06 12 27  1 59 30.0000000  0  8G29G18G22G16G 6G 7G26G21
  -1294909.20047   -962657.02044  24400072.5384   24400078.8804   24400072.7214
        43.3004         26.9004
 -22342227.89448 -16826446.29148  20573074.6814   20573079.8414   20573074.0774
        53.0004         49.5004
 -20628320.52649 -14406351.58247  21214336.6004   21214341.2824   21214336.5604
        54.1004         47.0004
  -5077294.95747  -3908414.38244  23751653.9624   23751659.5434   23751654.4324
        46.1004         29.3004
 -10446841.29947  -8096788.79945  22872892.3844   22872899.9614   22872891.9864
        46.4004         33.1004
 -16286172.50848 -12660109.34047  21478709.8364   21478716.9974   21478709.3194
        51.0004         43.2004
  -8627442.25547  -6199259.69745  22971410.3884   22971418.0564   22971409.9344
        43.7004         31.4004
 -22302920.62849 -17353765.35348  20617458.5714   20617463.5934   20617458.2314
        54.1004         48.8004
 06 12 27  2  0  0.0000000  0  8G29G18G22G16G 6G 7G26G21
  -1203716.90646   -891598.05844  24417425.8084   24417433.6134   24417426.1784
        41.2004         25.8004
 -22330048.04748 -16816955.49048  20575392.3764   20575397.7134   20575391.9534
        53.0004         49.5004
 -20673955.91949 -14441911.60247  21205652.4944   21205657.0114   21205652.3224
        54.1004         47.0004
  -5023739.03447  -3866682.48544  23761845.4194   23761850.3944   23761844.4974
        46.1004         29.3004
 -10345616.94047  -8017912.69145  22892154.8424   22892161.7494   22892154.4914
        46.4004         32.8004
 -16208165.47548 -12599324.64747  21493554.0734   21493561.0194   21493553.2134
        50.6004         43.2004
  -8546533.27147  -6136213.64945  22986807.0384   22986813.0814   22986808.4144
        45.7004         31.0004
 -22293320.12149 -17346284.43448  20619285.5194   20619290.4074   20619285.0464
        54.1004         48.8004
 06 12 27  2  0 30.0000000  0  9G29G18G22G14G16G 6G 7G26G21
  -1112228.63746   -820308.50444  24434835.3754   24434841.3354   24434835.9054
        39.8004         24.4004
 -22317529.07548 -16807200.44648  20577774.6664   20577779.9854   20577774.1334
        53.4004         49.5004
 -20719242.47649 -14477199.81847  21197034.7674   21197039.2154   21197034.4884
        54.4004         47.0004
  -1214104.18546   -913958.7634
        41.9004          1.5004
  -4969863.88847  -3824701.86444  23772097.5484   23772102.0214   23772097.4594
        45.4004         29.0004
 -10244182.31447  -7938872.75045  22911457.1934   22911464.1114   22911456.0294
        46.4004         32.8004
 -16129783.72948 -12538247.98847  21508469.5804   21508477.4064   21508468.6974
        50.6004         42.9004
  -8465126.17847  -6072779.66445  23002297.9074   23002305.8664   23002300.0394
        46.1004         30.0004
 -22283449.99949 -17338593.43748  20621163.7434   20621168.6714   20621163.2164
        54.1004         48.8004
 06 12 27  2  1  0.0000000  0  9G29G18G22G14G16G 6G 7G26G21
  -1020445.93446   -748789.53144  24452300.9814   24452307.2044   24452301.3644
        39.8004         24.1004
 -22304671.01548 -16797181.17048  20580221.4334   20580226.6784   20580220.7404
        53.0004         49.5004
 -20764179.25549 -14512215.47047  21188483.5894   21188488.1264   21188483.4184
        54.4004         47.0004
  -1326475.96447  -1001521.5874
        42.3004          1.5004
  -4915671.01747  -3782473.64044  23782410.0784   23782416.0374   23782409.6304
        44.4004         29.0004
 -10142538.60847  -7859669.87845  22930799.3264   22930806.3744   22930799.4784
        46.1004         32.4004
 -16051028.27248 -12476880.10547  21523456.2134   21523463.9364   21523455.4724
        51.0004         42.9004
  -8383223.21447  -6008959.04645  23017884.0684   23017890.9344   23017883.4614
        43.7004         31.4004
 -22273308.71149 -17330691.13048  20623093.5884   20623098.6314   20623093.0104
        54.1004         48.4004
 06 12 27  2  1 30.0000000  0  9G29G18G22G14G16G 6G 7G26G21
   -928373.53046   -677044.81944  24469821.7964   24469828.3034   24469821.3254
        40.9004         24.8004
 -22291477.70648 -16786900.66048  20582732.0704   20582737.1764   20582731.4124
        53.0004         49.5004
 -20808767.92349 -14546959.87347  21179998.6224   21180002.8424   21179998.5424
        54.4004         47.0004
  -1438810.37847  -1089054.8584
        42.3004          1.5004
  -4861165.08147  -3740001.49744  23792782.1774   23792787.7794   23792781.1904
        44.0004         28.6004
 -10040690.05347  -7780307.38545  22950180.3104   22950187.6324   22950179.9814
        44.7004         32.4004
 -15971903.04448 -12415224.10147  21538513.2364   21538520.7814   21538512.7284
        50.6004         42.5004
  -8300828.81048  -5944755.69945  23033562.6274   23033570.6744   23033566.5644
        49.2004         30.7004
 -22262896.41748 -17322577.65348  20625074.9594   20625079.7664   20625074.3984
        53.7004         48.4004
 06 12 27  2  2  0.0000000  0  9G29G18G22G14G16G 6G 7G26G21
   -836013.83546   -605076.23644  24487397.1674   24487403.6054   24487396.7484
        41.2004         25.8004
 -22277949.58548 -16776359.25948  20585306.3354   20585311.4054   20585305.5504
        53.4004         49.5004
 -20853008.67649 -14581433.17247  21171579.9094   21171584.2844   21171579.5904
        54.4004         47.0004
  -1551104.88047  -1176557.00643                  24206049.7224
        42.6004         22.0004
  -4806348.71347  -3697287.45344  23803213.2744   23803218.6264   23803213.3984
        44.4004         28.6004
  -9938638.79447  -7700786.95945  22969599.9114   22969607.9504   22969600.5664
        45.0004         32.4004
 -15892409.75448 -12353281.28947  21553640.3124   21553647.9874   21553639.8964
        50.6004         42.5004
  -8217945.99846  -5880171.68045  23049335.5654   23049336.4644   23049331.5704
        40.9004         30.7004
 -22252212.98548 -17314252.89548  20627107.9084   20627112.9214   20627107.3214
        53.7004         48.4004
 06 12 27  2  2 30.0000000  0  9G29G18G22G14G16G 6G 7G26G21
   -743369.00947   -532885.46844  24505026.7624   24505033.2804   24505027.0934
        43.0004         26.9004
 -22264087.74348 -16765557.81848  20587944.1504   20587949.5354   20587943.5434
        53.0004         49.5004
 -20896900.83649 -14615634.83847  21163227.4934   21163231.8004   21163227.3134
        54.1004         47.0004
  -1663356.36447  -1264025.66244  24184681.9874   24184689.1544   24184681.4034
        42.3004         24.4004
  -4751224.13047  -3654333.24444  23813702.9684   23813709.3484   23813702.6874
        44.0004         28.3004
  -9836386.65647  -7621109.98345  22989057.8254   22989065.6784   22989057.6074
        44.7004         32.1004
 -15812549.92448 -12291052.86647  21568837.2014   21568844.3464   21568836.9754
        50.6004         42.5004
  -8134576.95447  -5815208.83445  23065199.5454   23065207.0374   23065201.2934
        47.5004         31.0004
 -22241256.82848 -17305715.62348  20629192.7944   20629197.9194   20629192.2274
        53.7004         48.4004
 06 12 27  2  3  0.0000000  0  9G29G18G22G14G16G 6G 7G26G21
   -650442.61946   -460475.28844  24522710.0044   24522716.3764   24522709.4224
        41.9004         26.9004
 -22249893.96248 -16754497.72648  20590645.1514   20590650.2864   20590644.4334
        53.0004         49.5004
 -20940445.59749 -14649565.80347  21154941.1724   21154945.4184   21154941.1094
        54.1004         47.0004
  -1775562.80146  -1351459.24144  24163329.8384   24163336.6894   24163330.0954
        41.6004         24.8004
  -4695795.09247  -3611141.80444  23824250.7164   23824256.4834   23824249.8354
        43.3004         27.9004
  -9733936.69147  -7541278.86745  23008553.4594   23008561.3624   23008553.1704
        44.7004         32.1004
 -15732326.61048 -12228541.20747  21584103.2284   21584110.5464   21584102.7074
        51.0004         42.2004
  -8050725.86347  -5749870.21645  23081156.5504   23081160.3504   23081154.7494
        42.6004         30.0004
 -22230027.84148 -17296965.77048  20631329.6004   20631334.6234   20631328.9984
        53.7004         48.4004
 06 12 27  2  3 30.0000000  0  9G29G18G22G14G16G 6G 7G26G21
   -557237.11547   -387847.60844  24540446.3804   24540453.1154   24540446.7624
        42.3004         26.2004
 -22235369.64448 -16743180.06148  20593409.0234   20593414.3354   20593408.4004
        53.4004         49.1004
 -20983642.90149 -14683226.01847  21146720.9864   21146725.2154   21146720.8304
        54.1004         47.4004
  -1887721.07146  -1438855.30444  24141986.7264   24141993.5164   24141986.4614
        41.9004         24.4004
  -4640063.49047  -3567714.61144  23834855.8694   23834863.0924   23834855.5934
        43.3004         27.9004
  -9631290.99847  -7461295.23445  23028086.2404   23028093.6084   23028085.5184
        44.0004         31.7004
 -15651741.55348 -12165747.67647  21599438.0824   21599445.1664   21599437.6014
        51.0004         42.2004
  -7966395.07647  -5684157.96245  23097203.8074   23097212.1064   23097205.6674
        47.5004         31.7004
 -22218525.22248 -17288002.69048  20633518.4894   20633523.5254   20633518.0534
        53.7004         48.4004
 06 12 27  2  4  0.0000000  0  9G29G18G22G14G16G 6G 7G26G21
   -463754.14546   -315003.73444  24558235.6264   24558241.9164   24558235.1284
        41.2004         25.1004
 -22220514.78648 -16731604.83548  20596235.8274   20596240.8824   20596235.1434
        53.4004         49.1004
 -21026491.83549 -14716614.78247  21138567.0864   21138571.5834   21138567.0154
        54.1004         47.4004
  -1999827.66346  -1526211.07444  24120653.6894   24120659.3874   24120653.6494
        41.6004         24.1004
  -4584031.32947  -3524053.20144  23845518.4084   23845524.8514   23845518.2814
        42.6004         27.9004
  -9528450.93347  -7381160.13445  23047656.1014   23047663.7694   23047656.2404
        45.4004         31.7004
 -15570795.80048 -12102673.07847  21614841.5654   21614848.5804   21614840.8774
        51.0004         42.2004
  -7881586.68347  -5618073.45245  23113342.6944   23113349.6104   23113341.7564
        43.7004         30.7004
 -22206746.81749 -17278824.70748  20635759.8734   20635764.8604   20635759.3914
        54.1004         48.4004
 06 12 27  2  4 30.0000000  0  9G29G18G22G14G16G 6G 7G26G21
   -369997.57846   -241946.66643  24576076.8894   24576084.5294   24576077.3964
        39.8004         23.7004
 -22205331.92848 -16719774.03148  20599125.0324   20599130.3704   20599124.4534
        53.0004         49.1004
 -21068993.78249 -14749733.16747  21130479.2274   21130483.6994   21130479.1244
        54.1004         47.4004
  -2111881.22247  -1613525.51844  24099330.6824   24099336.9304   24099330.7014
        42.3004         24.1004
  -4527702.99347  -3480161.02244  23856237.2354   23856244.3274   23856236.1914
        43.3004         28.3004
  -9425419.85447  -7300876.20745  23067262.3554   23067269.6174   23067262.2774
        45.4004         31.4004
 -15489492.59448 -12039319.94547  21630313.1124   21630320.3624   21630312.4164
        51.0004         42.2004
  -7796304.87147  -5551620.13445  23129570.9924   23129575.9584   23129572.1604
        45.7004         30.3004
 -22194693.54349 -17269432.55348  20638053.5294   20638058.4744   20638052.9534
        54.1004         48.4004
 06 12 27  2  5  0.0000000  0  9G29G18G22G14G16G 6G 7G26G21
   -275968.40446   -168677.16643  24593969.9974   24593976.2914   24593969.9394
        39.1004         22.0004
 -22189820.69348 -16707687.34348  20602076.6744   20602081.9204   20602076.0604
        53.0004         49.1004
 -21111147.17349 -14782579.93647  21122457.7544   21122462.0984   21122457.6674
        54.1004         47.4004
  -2223877.18346  -1700795.08044  24078018.5804   24078024.3914   24078016.9264
        41.6004         24.1004
  -4471079.37247  -3436038.73944  23867012.2924   23867018.5584   23867011.3624
        43.3004         28.3004
  -9322198.55747  -7220444.03945  23086904.7354   23086912.0584   23086904.7684
        45.0004         31.7004
 -15407832.31248 -11975688.56947  21645852.5544   21645859.7034   21645851.8294
        50.6004         42.2004
  -7710550.89147  -5484798.81245  23145889.6954   23145895.8314   23145888.8154
        43.7004         30.3004
 -22182362.33348 -17259823.81248  20640400.0694   20640405.0424   20640399.4294
        53.7004         48.4004
 06 12 27  2  5 30.0000000  0  9G29G18G22G14G16G 6G 7G26G21
   -181669.80146    -95197.69743  24611914.4354   24611922.1094   24611914.4064
        37.7004         19.9004
 -22173982.65648 -16695346.01348  20605090.5414   20605095.6074   20605090.0234
        53.0004         49.1004
 -21152952.71849 -14815155.66547  21114502.4134   21114506.9054   21114502.1044
        54.1004         47.7004
  -2335813.17247  -1788017.92644  24056717.7224   24056724.6284   24056718.0514
        42.3004         24.4004
  -4414163.21647  -3391688.51244  23877843.0454   23877849.6694   23877843.0434
        44.7004         28.6004
  -9218789.65147  -7139865.67545  23106582.8114   23106590.3744   23106583.0854
        45.7004         31.4004
 -15325817.59748 -11911781.01546  21661459.4364   21661466.7364   21661458.5444
        50.6004         41.8004
  -7624328.26247  -5417612.35945  23162296.8594   23162304.1774   23162297.7454
        44.7004         30.3004
 -22169753.10548 -17249998.43648  20642799.4744   20642804.3814   20642798.8784
        53.7004         48.1004
 06 12 27  2  6  0.0000000  0  9G29G18G22G14G16G 6G 7G26G21
    -87107.55346    -21512.83342  24629909.1014   24629916.7064   24629912.5364
        36.7004         17.5004
 -22157822.32048 -16682753.53748  20608165.7514   20608170.8254   20608165.1444
        53.0004         49.1004
 -21194413.70849 -14847462.91147  21106612.6594   21106617.0544   21106612.2264
        54.1004         47.7004
  -2447689.69646  -1875194.42144  24035428.4194   24035435.9524   24035428.7094
        41.6004         24.4004
  -4356960.64147  -3347115.10144  23888728.4044   23888735.1284   23888728.5674
        44.4004         29.0004
  -9115198.63147  -7059145.40145  23126295.5134   23126303.2784   23126295.2194
        45.4004         31.4004
 -15243453.62048 -11847601.30646  21677132.8774   21677140.2934   21677132.1444
        51.0004         41.8004
  -7537643.12947  -5350065.47245  23178792.7084   23178800.3344   23178793.1954
        45.7004         31.4004
 -22156868.25248 -17239958.29148  20645251.3404   20645256.3184   20645250.8804
        53.7004         48.1004
 06 12 27  2  6 30.0000000  0  9G29G18G22G14G16G 6G 7G26G21
      7718.40045     52377.52742  24647953.9574   24647958.3464   24647953.0874
        35.3004         15.8004
 -22141338.34148 -16669908.87848  20611302.5734   20611307.6634   20611301.8434
        53.4004         49.5004
 -21235527.63449 -14879499.72147  21098788.8724   21098793.3374   21098788.6034
        54.1004         47.7004
  -2559501.12247  -1962320.19444  24014151.7564   24014157.4474   24014151.2394
        42.3004         24.8004
  -4299471.89847  -3302318.69244  23899668.1744   23899675.8014   23899668.3544
        44.4004         29.0004
  -9011425.12947  -6978282.94745  23146043.0044   23146050.7194   23146043.1184
        45.0004         31.4004
 -15160739.79448 -11783148.99146  21692872.8114   21692879.9934   21692872.2974
        50.6004         41.8004
  -7450495.70047  -5282158.41744  23195376.1094   23195382.9274   23195375.7654
        44.0004         29.7004
 -22143704.00148 -17229700.42948  20647756.4354   20647761.1474   20647755.7664
        53.7004         48.1004
 06 12 27  2  7  0.0000000  0  9G29G18G22G14G16G 6G 7G26G21
    102805.48845    126471.34442  24666048.4584                   24666048.9804
        34.6004         13.7004
 -22124531.74948 -16656812.82848  20614500.7364   20614506.0034   20614500.1784
        53.4004         49.5004
 -21276294.81549 -14911266.32847  21091031.1384   21091035.8194   21091030.8134
        54.1004         47.7004
  -2671244.67346  -2049393.06544  23992887.7094   23992893.9854   23992887.0504
        41.9004         25.1004
  -4241699.52047  -3257301.27344  23910662.0384   23910669.1244   23910661.8934
        44.7004         29.3004
  -8907471.29447  -6897279.96145  23165824.7064   23165832.6724   23165823.8444
        45.0004         31.0004
 -15077678.15648 -11718425.65046  21708678.9374   21708686.5664   21708678.5554
        50.6004         41.8004
  -7362888.93947  -5213893.33145  23212047.3514   23212054.9364   23212048.3334
        46.1004         31.4004
 -22130259.12148 -17219223.90048  20650314.9074   20650319.9584   20650314.1954
        53.7004         48.1004
 06 12 27  2  7 30.0000000  0  9G29G18G22G14G16G 6G 7G26G21
    198150.80445    200766.41641  24684192.1834                   24684191.4604
        33.6004         11.9004
 -22107403.92048 -16643466.46248  20617760.0774   20617765.2514   20617759.5224
        53.4004         49.5004
 -21316715.45249 -14942762.90347  21083339.2924   21083343.8744   21083339.0084
        54.1004         47.7004
  -2782918.25746  -2136411.43744  23971636.7004   23971643.7084   23971636.1124
        41.9004         25.5004
  -4183646.45947  -3212065.12644  23921709.2884   23921716.4164   23921708.8564
        44.4004         29.3004
  -8803339.67047  -6816138.45145  23185640.2934   23185646.9384   23185641.1454
        45.4004         31.0004
 -14994271.06148 -11653433.13746  21724550.7414   21724558.0964   21724549.9874
        50.6004         41.8004
  -7274825.82347  -5145272.83744  23228804.8284   23228811.7784   23228805.5934
        44.7004         29.7004
 -22116533.22148 -17208528.39648  20652926.8664   20652932.0384   20652926.2574
        53.7004         48.1004
 06 12 27  2  8  0.0000000  0  9G29G18G22G14G16G 6G 7G26G21
    293751.76045    275260.67541
        31.1004         10.2004
 -22089956.43148 -16629871.00848  20621080.2464   20621085.5494   20621079.7544
        53.7004         49.5004
 -21356789.51849 -14973989.41947  21075713.3584   21075717.9944   21075712.8884
        54.1004         47.7004
  -2894518.45147  -2223372.60944  23950399.9054   23950406.1254   23950399.2944
        42.6004         26.2004
  -4125315.60947  -3166612.52444  23932809.3984   23932816.0264   23932808.9414
        45.4004         29.3004
  -8699032.51847  -6734860.17045  23205489.3564   23205496.8674   23205489.8344
        45.0004         30.7004
 -14910520.53848 -11588173.00546  21740487.9284   21740495.4334   21740487.0144
        50.3004         41.5004
  -7186309.87047  -5076299.24345  23245649.1454   23245657.6984   23245649.7024
        45.0004         30.7004
 -22102526.18049 -17197613.82048  20655592.3174   20655597.2544   20655591.7114
        54.1004         48.1004
 06 12 27  2  8 30.0000000  0  9G29G18G22G14G16G 6G 7G26G21
    389605.21055  36210247.6534
        31.1004          1.5004
 -22072190.84148 -16616027.68548  20624460.9184   20624466.1364   20624460.2734
        53.7004         49.5004
 -21396518.13349 -15004946.75747  21068153.1954   21068157.7314   21068152.8714
        54.1004         47.7004
  -3006043.21447  -2310275.00644  23929177.6164   23929184.1374   23929176.7164
        43.3004         26.9004
  -4066710.11247  -3120945.91144  23943961.7644   23943967.8534   23943961.3404
        45.0004         29.3004
  -8594552.77247  -6653447.39545  23225371.1044   23225378.2484   23225371.0504
        45.0004         30.7004
 -14826429.33248 -11522647.40646  21756489.9834   21756497.4374   21756488.9464
        49.9004         41.1004
  -7097344.21947  -5006975.45944  23262578.3894   23262583.5954   23262580.0314
        45.4004         29.0004
 -22088237.51748 -17186479.79948  20658311.3544   20658316.2024   20658310.9194
        53.7004         48.1004
 06 12 27  2  9  0.0000000  0  9G29G18G22G14G16G 6G 7G26G21
    485709.02454  36285129.7284
        26.3004          1.5004
 -22054107.55848 -16601936.81648  20627902.0664   20627907.1644   20627901.5014
        53.4004         49.5004
 -21435900.54449 -15035634.32547  21060658.9234   21060663.6444   21060658.5994
        54.1004         47.7004
  -3117488.89547  -2397115.77944  23907970.2604   23907976.4424   23907969.7274
        43.0004         27.6004
  -4007832.19947  -3075067.02944  23955165.8774   23955171.4804   23955165.6944
        44.0004         29.0004
  -8489901.88147  -6571901.26245  23245285.5484   23245292.7054   23245285.8134
        44.0004         30.7004
 -14741998.70348 -11456857.32046  21772556.5954   21772564.4094   21772555.7834
        49.9004         40.8004
  -7007931.38447  -4937303.03144  23279593.4894   23279600.8934   23279594.0924
        44.4004         29.3004
 -22073664.81548 -17175124.44848  20661084.4594   20661089.6884   20661083.9694
        53.7004         48.1004
 06 12 27  2  9 30.0000000  0  9G29G18G22G14G16G 6G 7G26G21
    582060.26054  36360193.3814
        28.7004          1.5004
 -22035708.55748 -16587599.93148  20631403.2854   20631408.4864   20631402.6874
        53.7004         49.5004
 -21474937.47249 -15066052.69047  21053230.3724   21053234.9484   21053229.9524
        54.1004         47.7004
  -3228853.66347  -2483893.50944  23886778.1324   23886784.5784   23886778.1484
        43.0004         27.9004
  -3948685.03147  -3028978.34244  23966421.1954   23966426.7514   23966420.8924
        44.4004         28.3004
  -8385082.65647  -6490223.96945  23265231.8964   23265239.5744   23265232.0854
        44.4004         30.7004
 -14657231.44248 -11390804.93046  21788687.2764   21788694.5974   21788686.3564
        49.9004         40.4004
  -6918074.91147  -4867285.10545  23296692.4404   23296700.5144   23296692.4254
        44.0004         30.3004
 -22058808.35848 -17163547.99248  20663911.5254   20663916.7424   20663910.9524
        53.7004         48.4004
 06 12 27  2 10  0.0000000  0  9G29G18G22G14G16G 6G 7G26G21
    678655.36454  36488677.4914
        26.6004          1.5004
 -22016996.08748 -16573018.77448  20634964.1564   20634969.3954   20634963.6524
        53.4004         49.8004
 -21513630.34048 -15096202.94647  21045867.3084   21045871.7334   21045867.0494
        53.7004         47.7004
  -3340135.35547  -2570606.49944  23865601.9244   23865608.3164   23865601.6484
        43.7004         28.6004
  -3889272.31247  -2982682.72844  23977727.0474   23977733.4314   23977726.0964
        43.0004         27.9004
  -8280098.31647  -6408418.00945  23285209.8484   23285217.9464   23285209.4154
        43.7004         30.7004
 -14572130.48348 -11324492.50546  21804881.4734   21804888.6334   21804880.5754
        49.6004         40.4004
  -6827778.67447  -4796924.26044  23313875.6034   23313876.5134   23313875.5404
        44.7004         28.6004
 -22043668.00648 -17151750.30948  20666792.6434   20666797.9184   20666791.8684
        53.4004         48.1004
 06 12 27  2 10 30.0000000  0  8G18G22G14G16G 6G 7G26G21
 -21997970.05048 -16558193.28548  20638584.6984   20638590.0044   20638584.0964
        53.4004         49.8004
 -21551977.75349 -15126084.02547  21038570.0194   21038574.5774   21038569.7714
        54.1004         47.7004
  -3451329.95947  -2657251.63644  23844442.3864   23844448.9484   23844441.9064
        44.0004         29.0004
  -3829595.47147  -2936181.31344  23989083.1384   23989088.3824   23989083.0434
        44.0004         27.6004
  -8174949.97047  -6326484.25545  23305218.8894   23305226.9364   23305219.0334
        44.4004         30.7004
 -14486696.82248 -11257920.83146  21821138.9424   21821146.2474   21821137.9614
        49.9004         40.1004
  -6737044.36247  -4726222.28544  23331141.6064   23331149.2274   23331141.7274
        44.0004         29.0004
 -22028242.04448 -17139730.08448  20669728.1044   20669733.2584   20669727.5554
        53.7004         48.1004
 06 12 27  2 11  0.0000000  0  8G18G22G14G16G 6G 7G26G21
 -21978631.94048 -16543124.62448  20642264.6484   20642269.8284   20642264.1984
        53.7004         49.8004
 -21589980.19849 -15155696.29547  21031338.3614   21031342.7134   21031338.0584
        54.1004         47.7004
  -3562434.82847  -2743826.85044  23823299.8034   23823306.3964   23823299.4634
        43.7004         29.0004
  -3769657.57047  -2889476.47144  24000488.8834   24000495.6184   24000489.2474
        43.0004         26.9004
  -8069639.81747  -6244424.42545  23325258.7934   23325266.6944   23325259.3494
        44.4004         30.7004
 -14400932.77448 -11191091.72546  21837459.2714   21837467.0894   21837458.7524
        49.9004         40.1004
  -6645875.25547  -4655181.42745  23348490.6914   23348496.7734   23348492.0654
        46.1004         31.0004
 -22012529.30249 -17127486.38948  20672718.1084   20672723.1634   20672717.5054
        54.1004         48.1004
 06 12 27  2 11 30.0000000  0  8G18G22G14G16G 6G 7G26G21
 -21958983.16848 -16527813.89048  20646003.6884   20646008.9134   20646003.1494
        53.4004         49.8004
 -21627638.81349 -15185040.64447  21024172.1824   21024176.5214   21024171.9994
        54.1004         47.7004
  -3673447.72647  -2830330.39044  23802174.7604   23802181.1504   23802174.4974
        44.0004         29.0004
  -3709461.72647  -2842570.63144  24011943.7124   24011951.8174   24011943.2984
        43.3004         26.5004
  -7964170.94547  -6162240.91545  23345328.9674   23345337.0914   23345328.3854
        44.0004         31.0004
 -14314840.91248 -11124007.16946  21853842.0754   21853849.6524   21853841.2714
        49.9004         40.1004
  -6554274.78547  -4583804.43044  23365921.4934   23365926.4314   23365920.7704
        43.0004         26.2004
 -21996529.13449 -17115018.72848  20675762.8454   20675767.9034   20675762.4384
        54.1004         48.1004
 06 12 27  2 12  0.0000000  0  8G18G22G14G16G 6G 7G26G21
 -21939025.37648 -16512262.36248  20649801.5234   20649806.7234   20649800.9504
        53.7004         49.8004
 -21664953.77449 -15214117.20947  21017071.3894   21017075.8724   21017071.1444
        54.1004         47.7004
  -3784365.88947  -2916760.12244  23781067.6744   23781073.5344   23781067.2504
        43.3004         28.6004
  -3649011.16547  -2795466.32444  24023447.0554   24023454.4304   24023447.5934
        43.0004         26.2004
  -7858545.80747  -6079935.64245  23365428.8184   23365436.9764   23365428.8104
        44.7004         31.0004
 -14228423.64448 -11056669.05046  21870286.7244   21870294.2994   21870285.9364
        49.6004         39.7004
  -6462246.50547  -4512094.07945  23383434.0304   23383441.9674   23383435.6344
        46.4004         30.7004
 -21980241.38148 -17102326.96848  20678862.3254   20678867.3884   20678861.8124
        53.7004         48.1004
 06 12 27  2 12 30.0000000  0  8G18G22G14G16G 6G 7G26G21
 -21918762.43548 -16496473.05048  20653657.4384   20653662.6004   20653656.7914
        53.7004         49.8004
 -21701927.88449 -15242928.17547  21010035.4324   21010039.8634   21010035.2554
        54.4004         47.7004
  -3895189.34547  -3003116.05544  23759978.5894   23759984.0754   23759977.5704
        42.6004         28.3004
  -3588311.40847  -2748167.83344  24034997.7524   24035004.1874   24034997.1884
        42.6004         25.8004
  -7752769.15647  -5997512.30145  23385557.4184   23385565.3264   23385557.5954
        45.0004         31.4004
 -14141685.90248 -10989081.22046  21886792.3334   21886799.7524   21886791.5504
        49.6004         39.7004
  -6369795.99947  -4440054.76944  23401026.9434   23401031.4184   23401026.4374
        42.3004         28.6004
 -21963667.98048 -17089412.62848  20682016.1594   20682021.1304   20682015.5094
        53.7004         48.1004
 06 12 27  2 13  0.0000000  0  8G18G22G14G16G 6G 7G26G21
 -21898191.67848 -16480443.88148  20657571.9114   20657577.1254   20657571.2714
        53.4004         49.5004
 -21738557.45349 -15271470.67347  21003065.0514   21003069.3314   21003064.8114
        54.1004         47.7004
  -4005911.50547  -3089393.05644  23738908.8084   23738914.6244   23738907.6164
        43.0004         27.9004
  -3527360.85847  -2700673.91844  24046596.2474   24046604.2934   24046596.8174
        43.0004         25.5004
  -7646839.38847  -5914969.64245  23405715.2054   23405722.4554   23405715.1314
        44.7004         31.4004
 -14054625.57748 -10921242.03246  21903359.4114   21903366.5654   21903358.7104
        49.6004         39.7004
  -6276922.10447  -4367685.37844  23418699.9684   23418708.2044   23418700.6714
        46.1004         27.6004
 -21946803.54049 -17076271.50848  20685225.3504   20685230.3044   20685224.9674
        54.1004         48.1004
 06 12 27  2 13 30.0000000  0  8G18G22G14G16G 6G 7G26G21
 -21877316.47548 -16464177.48548  20661544.3204   20661549.5074   20661543.6414
        53.4004         49.5004
 -21774844.97449 -15299746.64348  20996159.7854   20996164.0714   20996159.5414
        54.4004         48.1004
  -4116530.79947  -3175589.90344  23717858.6304   23717864.1674   23717857.8994
        42.6004         27.2004
  -3466164.74647  -2652988.67644  24058241.5414   24058248.9824   24058242.4354
        43.3004         25.8004
  -7540760.99847  -5832311.17245  23425901.3414   23425908.7744   23425901.3864
        44.7004         31.4004
 -13967247.29948 -10853155.07446  21919986.9354   21919994.4054   21919986.1894
        49.6004         39.4004
  -6183630.31947  -4294990.51745  23436453.1014   23436460.5074   23436452.4924
        43.3004         30.0004
 -21929649.47948 -17062904.70348  20688489.7414   20688494.6094   20688489.3474
        53.7004         48.1004
 06 12 27  2 14  0.0000000  0  8G18G22G14G16G 6G 7G26G21
 -21856137.28648 -16447674.21448  20665574.5624   20665579.7214   20665573.8414
        53.7004         49.5004
 -21810789.70849 -15327755.50148  20989319.7074   20989324.0204   20989319.4764
        54.1004         48.1004
  -4227044.18046  -3261704.22144  23696828.4724   23696835.3354   23696827.6984
        41.9004         26.5004
  -3404724.56947  -2605113.21944  24069933.2214   24069939.4284   24069932.6924
        43.3004         26.2004
  -7434535.17047  -5749537.81845  23446115.3924   23446123.1604   23446115.4324
        44.7004         31.0004
 -13879552.15548 -10784821.21046  21936674.7124   21936682.3444   21936673.9274
        49.2004         39.4004
  -6089922.47547  -4221971.52044  23454284.7034   23454290.1394   23454284.0274
        44.0004         27.6004
 -21912204.75348 -17049311.40748  20691809.3354   20691814.3384   20691808.8594
        53.7004         48.1004
 06 12 27  2 14 30.0000000  0  8G18G22G14G16G 6G 7G26G21
 -21834655.58048 -16430935.21748  20669662.3614   20669667.6944   20669661.5414
        53.7004         49.5004
 -21846392.61849 -15355498.01148  20982544.7044   20982549.0204   20982544.6474
        54.4004         48.1004
  -4337449.10847  -3347734.05244  23675819.0394   23675824.7254   23675817.2834
        42.6004         26.2004
  -3343043.81847  -2557050.32144  24081670.6924   24081678.2674   24081670.3174
        43.3004         26.9004
  -7328164.80547  -5666651.82945  23466356.9474   23466365.2724   23466356.7594
        44.4004         30.3004
 -13791542.79748 -10716242.50846  21953422.3674   21953429.8104   21953421.7424
        49.2004         39.4004
  -5995802.50647  -4148631.07444  23472195.3624   23472205.0124   23472195.0974
        43.7004         28.3004
 -21894468.16249 -17035490.69048  20695184.5154   20695189.5984   20695183.8924
        54.1004         48.1004
 06 12 27  2 15  0.0000000  0  8G18G22G14G16G 6G 7G26G21
 -21812872.82148 -16413961.62448  20673807.4604   20673812.7124   20673806.8014
        53.4004         49.5004
 -21881654.02749 -15382974.41948  20975834.7094   20975838.6144   20975834.3024
        54.4004         48.1004
  -4447743.01347  -3433677.35344  23654830.9514   23654837.4304   23654830.2224
        42.6004         26.2004
  -3281125.60647  -2508802.38244  24093453.4914   24093460.3624   24093453.4494
        43.7004         27.2004
  -7221652.31247  -5583655.09845  23486625.5584   23486633.2704   23486625.3684
        44.4004         30.0004
 -13703221.78748 -10647420.96246  21970229.3104   21970236.9454   21970228.9774
        49.6004         39.0004
  -5901273.47247  -4074972.29045  23490183.2974   23490191.1434   23490183.6344
        43.0004         30.0004
 -21876439.50249 -17021442.38448  20698615.2654   20698620.4804   20698614.6874
        54.1004         48.4004
 06 12 27  2 15 30.0000000  0  8G18G22G14G16G 6G 7G26G21
 -21790790.15248 -16396754.34448  20678009.6194   20678014.8274   20678008.9924
        53.4004         49.5004
 -21916574.02449 -15410184.78648  20969189.6154   20969193.6764   20969189.2824
        54.4004         48.1004
  -4557922.65647  -3519531.63444  23633864.3084   23633869.8974   23633862.7674
        43.0004         26.2004
  -3218972.39947  -2460371.33044  24105280.9354   24105287.6264   24105280.9514
        44.4004         27.6004
  -7114999.79247  -5500549.24644  23506920.7464   23506928.4204   23506920.8674
        43.0004         29.3004
 -13614590.95548 -10578357.98446  21987095.1944   21987102.4134   21987094.6714
        49.6004         39.0004
  -5806338.33547  -4000996.68944  23508248.9074   23508250.3174   23508249.0984
        44.7004         27.2004
 -21858117.42449 -17007165.43348  20702101.7914   20702106.9364   20702101.0644
        54.1004         48.4004
 06 12 27  2 16  0.0000000  0  8G18G22G14G16G 6G 7G26G21
 -21768409.08748 -16379314.54648  20682268.5894   20682273.7614   20682267.9344
        53.4004         49.1004
 -21951153.51249 -15437129.82948  20962609.3544   20962613.3594   20962609.0184
        54.1004         48.1004
  -4667985.61647  -3605294.98344  23612919.9284   23612926.0974   23612919.6264
        43.0004         26.5004
  -3156587.86147  -2411760.02644  24117152.4444   24117159.0054   24117152.1034
        44.7004         27.9004
  -7008209.93147  -5417336.39544  23527242.1504   23527249.5964   23527241.9994
        43.0004         28.6004
 -13525653.22248 -10509055.87546  22004019.5524   22004026.9344   22004019.3044
        49.9004         39.0004
  -5711000.44347  -3926707.44344  23526391.0634   23526399.9024   23526390.1394
        42.6004         28.3004
 -21839500.95349 -16992659.10148  20705644.4324   20705649.2484   20705643.8614
        54.1004         48.4004
