     2.10           OBSERVATION DATA    G (GPS)             RINEX VERSION / TYPE
teqc  2006Dec12     UNAVCO Archive Ops  20061228 04:13:46UTCPGM / RUN BY / DATE
Solaris 5.9|UltraSparc IIIi|cc -xarch=v9 SC5.8|=+-|*Sparc   COMMENT
BIT 2 OF LLI FLAGS DATA COLLECTED UNDER A/S CONDITION       COMMENT
USLO                                                        MARKER NAME
49714M001                                                   MARKER NUMBER
Freddy Blume        UNAVCO                                  OBSERVER / AGENCY
LP02643             ASHTECH Z-XII3      CC00                REC # / TYPE / VERS
CR519991817         ASH701933B_M    SCIT                    ANT # / TYPE
 -2657201.1481 -4482167.4171  3666227.1204                  APPROX POSITION XYZ
        0.0083        0.0000        0.0000                  ANTENNA: DELTA H/E/N
     1     1                                                WAVELENGTH FACT L1/2
     7    L1    L2    C1    P2    P1    S1    S2            # / TYPES OF OBSERV
    30.0000                                                 INTERVAL
RINEX file created by UNAVCO GPS Archive.                   COMMENT
For more information contact archive@unavco.org             COMMENT
Monument ID: 18694                                          COMMENT
UNAVCO 4-char name:   USLO                                  COMMENT
4-char name from Log or data file: USLO                     COMMENT
Monument location: 35.311803 -120.661092 134.6419           COMMENT
Visit ID: 79583                                             COMMENT
End of DB comments                                          COMMENT
 SNR is mapped to RINEX snr flag value [0-9]                COMMENT
  L1 & L2: min(max(int(snr_dBHz/6), 0), 9)                  COMMENT
pseudorange smoothing corrections not applied               COMMENT
  2006    12    27     0     0   30.0000000     GPS         TIME OF FIRST OBS
                                                            END OF HEADER
 06 12 27  0  0 30.0000000  0 11G29G18G22G30G16G 6G 5G10G 7G26G21
  -9907430.63747  -7673715.37345  22761166.2294   22761172.6104   22761166.4724
        45.4004         33.8004
 -14012040.83748 -10335395.61646  22158259.7894   22158266.1514   22158259.1664
        51.0004         40.1004
  -1091644.51147    279118.9304
        44.4004          1.5004
  -7072575.91147  -4942057.17945  23365557.2504   23365565.1804   23365557.3614
        47.5004         32.8004
  -4731175.50847  -3638711.23544  23817518.8734   23817525.1374   23817520.2144
        45.4004         29.0004
 -24569788.05249 -19101680.20448  20185383.3524   20185390.1754   20185383.2804
        54.1004         49.1004
   3094341.35046   2446708.95643  25607847.5844   25607858.0674   25607849.4454
        36.4004         18.9004
  -7471739.47047  -5787345.92345  23488549.1804   23488556.7644   23488546.2884
        43.7004         31.0004
 -21837320.47749 -16985678.09548  20422360.9754   20422368.0484   20422360.1044
        54.8004         50.5004
 -10263038.27547  -7473754.04844  22660171.1674   22660179.5914   22660172.4794
        45.0004         29.0004
 -18454001.19748 -14354608.89247  21349885.0074   21349890.3754   21349884.3634
        53.7004         46.3004
 06 12 27  0  1  0.0000000  0 11G29G18G22G30G16G 6G 5G10G 7G26G21
  -9935217.34947  -7695367.31445  22755878.7884   22755885.3654   22755879.3334
        46.8004         33.8004
 -14093530.59948 -10398894.11446  22142752.8314   22142759.2584   22142752.1024
        51.3004         40.4004
  -1199107.20347    195384.5344
        44.4004          1.5004
  -6968529.54747  -4860982.10045  23385356.6794   23385365.2704   23385357.0944
        46.8004         32.8004
  -4792485.11147  -3686485.00044  23805852.1914   23805858.9584   23805849.7734
        43.0004         28.3004
 -24561348.05149 -19095103.58048  20186989.4444   20186995.9404   20186989.2684
        54.1004         49.1004
   3197068.20446   2526755.76543  25627395.8204   25627405.6664   25627397.5924
        37.1004         18.2004
  -7368966.95547  -5707263.38745  23508106.2634   23508111.3174   23508106.7564
        46.4004         31.0004
 -21868080.02049 -17009646.56348  20416507.6204   20416514.6054   20416506.8964
        54.8004         50.5004
 -10327727.59847  -7524161.27444  22647861.2794   22647869.2824   22647860.2434
        44.7004         29.7004
 -18491666.35048 -14383958.33347  21342717.6114   21342722.7954   21342717.0444
        53.7004         46.3004
 06 12 27  0  1 30.0000000  0 11G29G18G22G30G16G 6G 5G10G 7G26G21
  -9962491.19447  -7716619.66245  22750688.7874   22750695.1904   22750688.8764
        45.4004         33.1004
 -14174693.77148 -10462138.13146  22127308.0024   22127314.3244   22127307.7844
        51.0004         40.8004
  -1306483.35047    649616.9454
        43.7004          1.5004
  -6864388.24447  -4779833.03645  23405174.1314   23405182.5394   23405174.4254
        46.8004         32.4004
  -4853345.64247  -3733908.78044  23794270.8224   23794274.7664   23794270.4694
        44.7004         28.6004
 -24552470.21049 -19088185.78248  20188678.8454   20188685.6114   20188678.6594
        54.1004         49.1004
   3299620.81146   2606666.80643  25646910.8784   25646919.4654   25646910.6634
        39.5004         20.3004
  -7266019.48647  -5627044.66545  23527696.3134   23527703.8064   23527696.0954
        46.1004         30.3004
 -21898460.35149 -17033319.54148  20410726.4084   20410733.4064   20410725.6694
        55.1004         50.5004
 -10391963.42647  -7574215.10944  22635637.2014   22635644.5134   22635634.5264
        42.3004         28.6004
 -18529162.51048 -14413176.08847  21335582.3174   21335587.6194   21335581.6844
        53.7004         46.3004
 06 12 27  0  2  0.0000000  0 11G29G18G22G30G16G 6G 5G10G 7G26G21
  -9989250.08547  -7737470.70845  22745596.5334   22745603.2874   22745597.1414
        45.4004         32.8004
 -14255527.98848 -10525125.81246  22111925.7944   22111932.0484   22111925.3434
        51.3004         40.8004
  -1413769.95747    566016.8164
        43.7004          1.5004
  -6760154.36247  -4698611.84945  23425009.2334   23425017.1884   23425009.3834
        46.8004         32.1004
  -4913754.62747  -3780980.63444  23782775.1814   23782781.5974   23782775.6774
        46.1004         29.0004
 -24543153.20149 -19080925.77548  20190451.7954   20190458.6774   20190451.6914
        54.1004         49.1004
   3401997.91346   2686441.07543  25666392.6984   25666402.6664   25666391.0874
        36.7004         19.6004
  -7162899.56946  -5546691.42745  23547319.6494   23547327.3474   23547315.3234
        41.6004         30.3004
 -21928459.41549 -17056695.42548  20405017.7884   20405024.9504   20405016.9914
        55.1004         50.5004
 -10455742.00547  -7623912.65644  22623499.7814   22623507.2254   22623498.9584
        42.6004         27.9004
 -18566489.19448 -14442261.79047  21328479.2554   21328484.3934   21328478.7914
        53.7004         46.7004
 06 12 27  0  2 30.0000000  0 11G29G18G22G30G16G 6G 5G10G 7G26G21
 -10015492.16847  -7757919.05945  22740602.8594   22740611.1384   22740602.6284
        45.4004         33.5004
 -14336032.21148 -10587856.35646  22096606.3834   22096612.4044   22096605.8884
        51.6004         41.1004
  -1520966.52447    482487.21542                  24850358.6264
        43.0004         13.7004
  -6655831.00547  -4617320.95145  23444861.3774   23444868.8954   23444861.1904
        46.1004         32.1004
  -4973710.45047  -3827699.48044  23771366.2124   23771369.8864   23771365.3064
        44.4004         28.6004
 -24533396.52249 -19073323.17248  20192308.4654   20192315.3344   20192308.3664
        54.1004         49.1004
   3504197.11046   2766076.71443  25685840.5104   25685850.9744   25685839.4334
        39.5004         20.6004
  -7059610.12047  -5466206.15544  23566974.6944   23566981.2344   23566974.5434
        46.1004         29.3004
 -21958075.68249 -17079773.02848  20399381.9654   20399388.9654   20399381.2224
        55.1004         50.5004
 -10519060.14447  -7673251.43544  22611450.5684   22611457.5774   22611451.9184
        44.7004         28.3004
 -18603646.72548 -14471215.68947  21321408.3944   21321413.7074   21321407.8564
        53.7004         46.3004
 06 12 27  0  3  0.0000000  0 11G29G18G22G30G16G 6G 5G10G 7G26G21
 -10041216.97947  -7777964.32845  22735707.5524   22735714.8724   22735706.8084
        45.4004         33.5004
 -14416205.50848 -10650329.02846  22081349.9104   22081355.8184   22081349.4504
        52.0004         41.1004
  -1628071.67647    399028.75844  24829970.5994   24829977.1894   24829969.2604
        42.3004         24.1004
  -6551422.13347  -4535963.41545  23464729.7924   23464737.8674   23464730.0554
        46.1004         31.7004
  -5033212.19647  -3874064.44944  23760043.4764   23760047.7174   23760040.9164
        44.4004         29.0004
 -24523200.44449 -19065378.17948  20194248.7134   20194255.4344   20194248.6534
        54.1004         49.1004
   3606215.43146   2845571.41143  25705253.8824   25705263.8814   25705253.1544
        39.8004         21.7004
  -6956154.56846  -5385591.51445  23586661.7654   23586669.6034   23586657.9564
        41.9004         30.3004
 -21987308.41649 -17102551.77248  20393819.1644   20393826.1194   20393818.5734
        55.1004         50.5004
 -10581915.53847  -7722229.64945  22599490.1644   22599499.0484   22599492.4474
        46.4004         30.0004
 -18640636.05148 -14500038.51847  21314369.5064   21314374.7944   21314368.7904
        53.7004         46.3004
 06 12 27  0  3 30.0000000  0 11G29G18G22G30G16G 6G 5G10G 7G26G21
 -10066421.98347  -7797604.58745  22730910.9664   22730917.5364   22730911.9274
        46.4004         33.1004
 -14496046.05148 -10712542.41246  22066156.7344   22066163.0264   22066156.1484
        51.6004         41.1004
  -1735082.69446    315643.63644  24809607.0914   24809612.9304   24809607.1464
        41.2004         25.1004
  -6446929.80347  -4454540.83545  23484613.9634   23484621.4944   23484613.8804
        45.4004         31.7004
  -5092257.36847  -3920073.66744  23748807.4754   23748814.0714   23748806.9734
        45.0004         29.3004
 -24512563.42349 -19057089.59148  20196272.8674   20196279.5504   20196272.7014
        54.1004         49.1004
   3708051.49745   2924924.09142  25724632.6774   25724642.4094   25724634.1364
        35.7004         17.8004
  -6852535.21047  -5304849.04844  23606379.8724   23606382.9974   23606380.6434
        46.4004         29.0004
 -22016155.43449 -17125029.95548  20388329.7264   20388336.5274   20388328.9844
        55.1004         50.5004
 -10644304.44047  -7770844.34545  22587618.5954   22587627.6354   22587618.9874
        43.7004         31.0004
 -18677456.74648 -14528729.94947  21307362.6794   21307367.8694   21307362.1304
        53.4004         46.3004
 06 12 27  0  4  0.0000000  0 11G29G18G22G30G16G 6G 5G10G 7G26G21
 -10091106.52147  -7816839.27945  22726213.8644   22726220.9674   22726213.7604
        45.4004         33.5004
 -14575553.10648 -10774495.92346  22051027.0334   22051033.1204   22051026.6724
        52.0004         41.1004
  -1841998.73146    232332.50944  24789261.6724   24789268.4104   24789261.1624
        40.5004         24.8004
  -6342358.28447  -4373056.57145  23504513.0554   23504520.9444   23504513.4444
        45.4004         31.7004
  -5150845.45147  -3965726.69744  23737658.3834   23737661.5624   23737658.1414
        44.7004         28.6004
 -24501485.75649 -19048457.63448  20198380.8994   20198387.6754   20198380.7524
        54.1004         49.1004
   3809702.80846   3004132.80543  25743976.2124   25743984.9844   25743976.1764
        36.4004         20.6004
  -6748755.45247  -5223981.89045  23626128.3234   23626136.5814   23626128.2724
        45.4004         30.0004
 -22044615.84849 -17147206.88648  20382913.9044   20382920.9224   20382913.1734
        55.1004         50.5004
 -10706224.64646  -7819093.78345  22575835.1954   22575844.2674   22575832.5864
        41.9004         30.7004
 -18714109.68248 -14557290.65447  21300387.7964   21300393.1504   21300387.0094
        53.4004         46.3004
 06 12 27  0  4 30.0000000  0 11G29G18G22G30G16G 6G 5G10G 7G26G21
 -10115265.68847  -7835664.58345  22721616.3424   22721622.5724   22721614.9134
        45.0004         33.1004
 -14654721.84348 -10836185.82146  22035961.7144   22035967.5234   22035961.2024
        51.6004         41.1004
  -1948814.55446    149099.43044  24768935.3664   24768941.2184   24768934.1844
        39.8004         24.4004
  -6237707.55647  -4291510.57545  23524427.3194   23524435.5164   23524427.7284
        45.4004         31.7004
  -5208971.14047  -4011019.36044  23726597.3954   23726601.9334   23726596.5794
        45.0004         29.0004
 -24489963.45448 -19039479.22348  20200573.5094   20200580.2054   20200573.2844
        53.7004         49.1004
   3911169.98446   3083198.02743  25763284.8864   25763292.0354   25763285.2694
        38.1004         18.9004
  -6644814.83747  -5142989.09544  23645907.9644   23645911.6974   23645907.1094
        44.0004         29.7004
 -22072684.83849 -17169078.82248  20377572.5814   20377579.4554   20377571.8914
        54.4004         50.5004
 -10767669.66147  -7866972.92344  22564141.5684   22564150.2244   22564140.9804
        42.3004         29.3004
 -18750591.94048 -14585718.37647  21293445.3804   21293450.8514   21293444.6854
        53.4004         46.3004
 06 12 27  0  5  0.0000000  0 11G29G18G22G30G16G 6G 5G10G 7G26G21
 -10138903.06347  -7854083.29645  22717118.1034   22717125.4484   22717118.8064
        46.1004         33.1004
 -14733555.89948 -10897614.91246  22020960.0434   22020965.8834   22020959.6174
        52.0004         41.1004
  -2055533.39646     65941.89044  24748627.4124   24748633.0484   24748626.3924
        40.2004         24.1004
  -6132984.98647  -4209908.59445  23544355.3774   23544363.1444   23544356.3414
        45.7004         31.7004
  -5266637.81147  -4055954.45844  23715623.7714   23715630.0794   23715622.6164
        44.7004         29.3004
 -24478001.05448 -19030157.87048  20202849.9124   20202856.7024   20202849.8184
        53.7004         49.1004
   4012446.79946   3162114.90443  25782557.3354   25782567.0444   25782556.5584
        39.8004         21.0004
  -6540720.95447  -5061877.01945  23665716.0374   23665724.7644   23665716.4654
        47.5004         30.0004
 -22100365.87649 -17190648.45148  20372305.0364   20372312.1314   20372304.2974
        54.4004         50.5004
 -10828641.27247  -7914483.24244  22552539.0884   22552546.1314   22552540.3614
        44.4004         29.3004
 -18786908.75648 -14614017.17547  21286534.4494   21286540.0114   21286533.7794
        53.4004         46.3004
 06 12 27  0  5 30.0000000  0 11G29G18G22G30G16G 6G 5G10G 7G26G21
 -10162012.92247  -7872090.94145  22712720.4784   22712729.1054   22712720.1914
        46.1004         33.8004
 -14812049.65248 -10958778.82346  22006023.1574   22006028.8014   22006022.4884
        52.0004         41.1004
  -2162149.17546    -17135.35543  24728339.0314   24728343.9784   24728337.7584
        39.5004         23.7004
  -6028189.70447  -4128249.95445  23564297.3254   23564305.1004   23564297.9664
        46.1004         32.1004
  -5323839.88247  -4100527.43544  23704738.5074   23704744.8594   23704736.8524
        45.0004         29.3004
 -24465593.86348 -19020489.93248  20205210.9254   20205217.6934   20205210.6544
        53.7004         49.1004
   4113534.26046   3240884.24343  25801793.8064   25801802.6834   25801793.0404
        40.5004         20.3004
  -6436472.75547  -4980644.75944  23685553.9994   23685557.6974   23685550.2254
        43.7004         28.6004
 -22127653.27249 -17211911.34748  20367112.3964   20367119.3634   20367111.5624
        54.4004         50.5004
 -10889132.53147  -7961619.27744  22541028.6284   22541035.4114   22541027.1024
        43.0004         29.3004
 -18823056.19948 -14642184.00447  21279655.7814   21279661.0574   21279655.2814
        53.4004         46.3004
 06 12 27  0  6  0.0000000  0 11G29G18G22G30G16G 6G 5G10G 7G26G21
 -10184594.69447  -7889687.08345  22708423.2274   22708432.1354   22708422.9364
        46.4004         34.5004
 -14890202.49348 -11019677.10946  21991151.1914   21991157.2414   21991150.8934
        52.0004         41.1004
  -2268661.17946   -100131.72244  24708070.5004   24708076.1494   24708069.8994
        40.9004         24.1004
  -5923325.71847  -4046537.78045  23584252.3144   23584260.3884   23584253.1114
        46.4004         32.1004
  -5380576.53247  -4144737.81244  23693941.7034   23693948.9034   23693939.1074
        44.0004         29.3004
 -24452741.97748 -19010475.48048  20207656.5264   20207663.4484   20207656.2414
        53.7004         49.1004
   4214430.45746   3319504.62242  25820993.5124   25821006.3914   25820991.8394
        39.5004         16.1004
  -6332073.65947  -4899294.74144  23705420.3204   23705428.2314   23705420.7394
        46.1004         28.6004
 -22154546.21749 -17232866.88348  20361994.8044   20362001.8284   20361993.9854
        54.1004         50.5004
 -10949141.21247  -8008379.22145  22529609.1154   22529618.5294   22529608.6074
        44.0004         30.0004
 -18859035.36148 -14670219.70547  21272809.1514   21272814.7384   21272808.4414
        53.4004         46.3004
 06 12 27  0  6 30.0000000  0 11G29G18G22G30G16G 6G 5G10G 7G26G21
 -10206647.26347  -7906870.86145  22704226.7894   22704235.2034   22704227.4304
        46.8004         34.9004
 -14968013.67148 -11080309.15746  21976344.1434   21976350.0294   21976343.9344
        51.6004         41.5004
  -2375067.40046   -183045.65844  24687822.0424   24687827.6524   24687820.9874
        41.2004         24.1004
  -5818396.49647  -3964774.76145  23604219.8874   23604227.5024   23604220.8184
        46.4004         32.1004
  -5436846.70247  -4188584.69744  23683233.6954   23683240.8274   23683235.6474
        44.7004         29.7004
 -24439445.36749 -19000114.48548  20210186.7614   20210193.5184   20210186.4894
        54.1004         49.1004
   4315132.71746   3397973.74243  25840156.5744   25840164.5024   25840156.3724
        37.4004         18.5004
  -6227526.76647  -4817829.69144  23725315.1284   23725322.6354   23725313.6174
        43.3004         29.0004
 -22181043.61549 -17253514.20348  20356952.4884   20356959.4424   20356951.8064
        54.1004         50.5004
 -11008664.28947  -8054760.76345  22518282.1924   22518291.9204   22518282.3284
        43.7004         30.3004
 -18894846.52348 -14698124.49747  21265994.5414   21266000.1494   21265994.0094
        53.4004         46.7004
 06 12 27  0  7  0.0000000  0 10G29G18G22G30G16G 6G10G 7G26G21
 -10228168.73147  -7923640.80545  22700131.5054   22700139.8574   22700131.0064
        46.8004         35.2004
 -15045481.44848 -11140673.61446  21961602.5374   21961608.5014   21961601.6104
        51.6004         41.5004
  -2481366.24746   -265875.87844  24667593.8284   24667599.5894   24667593.2114
        40.9004         24.4004
  -5713404.40547  -3882962.75745  23624199.3814   23624207.2704   23624199.9474
        46.8004         32.1004
  -5492648.03647  -4232066.21344  23672615.0534   23672621.2354   23672615.2594
        45.7004         29.7004
 -24425703.08749 -18989406.21548  20212801.8464   20212808.6044   20212801.5794
        54.1004         49.1004
  -6122834.30147  -4736251.11244  23745237.5224   23745241.6484   23745237.2544
        46.1004         27.2004
 -22207143.61849 -17273851.86048  20351985.7644   20351992.7964   20351985.0544
        54.1004         50.5004
 -11067698.46647  -8100761.36945  22507048.5294   22507057.7634   22507050.6934
        45.7004         31.0004
 -18930489.34548 -14725898.11447  21259211.9444   21259217.2644   21259211.6244
        53.7004         46.7004
